$GPGGA,165809.013,3250.984160,N,03505.601660,E,1,10,0.78,3.0,M,0.0,M,,*52
$GPRMC,165809.013,A,3250.984160,N,03505.601660,E,64.9,208.2,140509,,,A*57
$GPGSA,A,3,21,26,08,29,27,10,02,06,24,09,,,1.32,0.78,1.07*00
$GPGSV,3,1,12,29,68,282,46,10,63,046,46,26,56,260,50,02,37,161,44*75
$GPGSV,3,2,12,08,35,057,49,47,32,125,46,24,20,152,47,06,16,274,42*7B
$GPGSV,3,3,12,27,13,039,41,21,09,319,46,09,06,197,34,04,03,149,17*7B
$GPGGA,165810.015,3250.968270,N,03505.591503,E,1,10,0.78,3.0,M,0.0,M,,*50
$GPRMC,165810.015,A,3250.968270,N,03505.591503,E,64.9,208.2,140509,,,A*55
$GPGGA,165811.016,3250.952380,N,03505.581346,E,1,10,0.78,3.0,M,0.0,M,,*53
$GPRMC,165811.016,A,3250.952380,N,03505.581346,E,64.9,208.2,140509,,,A*56
$GPGGA,165812.017,3250.936490,N,03505.571188,E,1,10,0.78,3.0,M,0.0,M,,*5A
$GPRMC,165812.017,A,3250.936490,N,03505.571188,E,64.9,208.2,140509,,,A*5F
$GPGSA,A,3,21,26,08,29,27,10,02,06,24,09,,,1.32,0.78,1.07*00
$GPGSV,3,1,12,29,68,282,46,10,63,046,46,26,56,260,50,02,37,161,44*75
$GPGSV,3,2,12,08,35,057,49,47,32,125,46,24,20,152,47,06,16,274,42*7B
$GPGSV,3,3,12,27,13,039,41,21,09,319,46,09,06,197,34,04,03,149,17*7B
$GPGGA,165813.019,3250.920600,N,03505.561031,E,1,10,0.78,3.0,M,0.0,M,,*5B
$GPRMC,165813.019,A,3250.920600,N,03505.561031,E,64.9,208.2,140509,,,A*5E
$GPGGA,165814.020,3250.904710,N,03505.550874,E,1,10,0.78,3.0,M,0.0,M,,*5B
$GPRMC,165814.020,A,3250.904710,N,03505.550874,E,64.9,208.2,140509,,,A*5E
$GPGGA,165815.022,3250.888820,N,03505.540717,E,1,10,0.78,3.0,M,0.0,M,,*5A
$GPRMC,165815.022,A,3250.888820,N,03505.540717,E,64.9,208.2,140509,,,A*5F
$GPGSA,A,3,21,26,08,29,27,10,02,06,24,09,,,1.32,0.78,1.07*00
$GPGSV,3,1,12,29,68,282,46,10,63,046,46,26,56,260,50,02,37,161,44*75
$GPGSV,3,2,12,08,35,057,49,47,32,125,46,24,20,152,47,06,16,274,42*7B
$GPGSV,3,3,12,27,13,039,41,21,09,319,46,09,06,197,34,04,03,149,17*7B
$GPGGA,165816.023,3250.872930,N,03505.530560,E,1,10,0.78,3.0,M,0.0,M,,*58
$GPRMC,165816.023,A,3250.872930,N,03505.530560,E,64.9,208.2,140509,,,A*5D
$GPGGA,165817.025,3250.857040,N,03505.520404,E,1,10,0.78,3.0,M,0.0,M,,*54
$GPRMC,165817.025,A,3250.857040,N,03505.520404,E,64.9,208.2,140509,,,A*51
$GPGGA,165818.026,3250.841149,N,03505.510247,E,1,10,0.78,3.0,M,0.0,M,,*55
$GPRMC,165818.026,A,3250.841149,N,03505.510247,E,64.9,208.2,140509,,,A*50
$GPGSA,A,3,21,26,08,29,27,10,02,06,24,09,,,1.32,0.78,1.07*00
$GPGSV,3,1,12,29,68,282,46,10,63,046,46,26,56,260,50,02,37,161,44*75
$GPGSV,3,2,12,08,35,057,49,47,32,125,46,24,20,152,47,06,16,274,42*7B
$GPGSV,3,3,12,27,13,039,41,21,09,319,46,09,06,197,34,04,03,149,17*7B
$GPGGA,165819.028,3250.825259,N,03505.500090,E,1,10,0.78,3.0,M,0.0,M,,*53
$GPRMC,165819.028,A,3250.825259,N,03505.500090,E,64.9,208.2,140509,,,A*56
$GPGGA,165820.029,3250.809369,N,03505.489933,E,1,10,0.78,3.0,M,0.0,M,,*54
$GPRMC,165820.029,A,3250.809369,N,03505.489933,E,64.9,208.2,140509,,,A*51
$GPGGA,165821.030,3250.793479,N,03505.479777,E,1,10,0.78,3.0,M,0.0,M,,*56
$GPRMC,165821.030,A,3250.793479,N,03505.479777,E,64.9,208.2,140509,,,A*53
$GPGSA,A,3,21,26,08,29,27,10,02,06,24,09,,,1.32,0.78,1.07*00
$GPGSV,3,1,12,29,68,282,46,10,63,046,46,26,56,260,50,02,37,161,44*75
$GPGSV,3,2,12,08,35,057,49,47,32,125,46,24,20,152,47,06,16,274,42*7B
$GPGSV,3,3,12,27,13,039,41,21,09,319,46,09,06,197,34,04,03,149,17*7B
$GPGGA,165822.032,3250.777589,N,03505.469620,E,1,10,0.78,3.0,M,0.0,M,,*51
$GPRMC,165822.032,A,3250.777589,N,03505.469620,E,64.9,208.2,140509,,,A*54
$GPGGA,165823.033,3250.761699,N,03505.459464,E,1,10,0.78,3.0,M,0.0,M,,*55
$GPRMC,165823.033,A,3250.761699,N,03505.459464,E,64.9,208.2,140509,,,A*50
$GPGGA,165824.035,3250.745808,N,03505.449307,E,1,10,0.78,3.0,M,0.0,M,,*57
$GPRMC,165824.035,A,3250.745808,N,03505.449307,E,64.9,208.2,140509,,,A*52
$GPGSA,A,3,21,26,08,29,27,10,02,06,24,09,,,1.32,0.78,1.07*00
$GPGSV,3,1,12,29,68,282,46,10,63,046,46,26,56,260,50,02,37,161,44*75
$GPGSV,3,2,12,08,35,057,49,47,32,125,46,24,20,152,47,06,16,274,42*7B
$GPGSV,3,3,12,27,13,039,41,21,09,319,46,09,06,197,34,04,03,149,17*7B
$GPGGA,165825.036,3250.729918,N,03505.439151,E,1,10,0.78,3.0,M,0.0,M,,*59
$GPRMC,165825.036,A,3250.729918,N,03505.439151,E,64.9,208.2,140509,,,A*5C
$GPGGA,165826.038,3250.714028,N,03505.428995,E,1,10,0.78,3.0,M,0.0,M,,*50
$GPRMC,165826.038,A,3250.714028,N,03505.428995,E,64.9,208.2,140509,,,A*55
$GPGGA,165827.039,3250.698138,N,03505.418838,E,1,10,0.78,3.0,M,0.0,M,,*50
$GPRMC,165827.039,A,3250.698138,N,03505.418838,E,64.9,208.2,140509,,,A*55
$GPGSA,A,3,21,26,08,29,27,10,02,06,24,09,,,1.32,0.78,1.07*00
$GPGSV,3,1,12,29,68,282,46,10,63,046,46,26,56,260,50,02,37,161,44*75
$GPGSV,3,2,12,08,35,057,49,47,32,125,46,24,20,152,47,06,16,274,42*7B
$GPGSV,3,3,12,27,13,039,41,21,09,319,46,09,06,197,34,04,03,149,17*7B
$GPGGA,165828.041,3250.682247,N,03505.408682,E,1,10,0.78,3.0,M,0.0,M,,*5E
$GPRMC,165828.041,A,3250.682247,N,03505.408682,E,64.9,208.2,140509,,,A*5B
$GPGGA,165829.042,3250.666357,N,03505.398526,E,1,10,0.78,3.0,M,0.0,M,,*55
$GPRMC,165829.042,A,3250.666357,N,03505.398526,E,64.9,208.2,140509,,,A*50
$GPGGA,165830.043,3250.650467,N,03505.388370,E,1,10,0.78,3.0,M,0.0,M,,*59
$GPRMC,165830.043,A,3250.650467,N,03505.388370,E,64.9,208.2,140509,,,A*5C
$GPGSA,A,3,21,26,08,29,27,10,02,06,24,09,,,1.32,0.78,1.07*00
$GPGSV,3,1,12,29,68,282,46,10,63,046,46,26,56,260,50,02,37,161,44*75
$GPGSV,3,2,12,08,35,057,49,47,32,125,46,24,20,152,47,06,16,274,42*7B
$GPGSV,3,3,12,27,13,039,41,21,09,319,46,09,06,197,34,04,03,149,17*7B
$GPGGA,165831.045,3250.634577,N,03505.378214,E,1,10,0.78,3.0,M,0.0,M,,*50
$GPRMC,165831.045,A,3250.634577,N,03505.378214,E,64.9,208.2,140509,,,A*55
$GPGGA,165832.046,3250.618686,N,03505.368058,E,1,10,0.78,3.0,M,0.0,M,,*58
$GPRMC,165832.046,A,3250.618686,N,03505.368058,E,64.9,208.2,140509,,,A*5D
$GPGGA,165833.048,3250.602796,N,03505.357902,E,1,10,0.78,3.0,M,0.0,M,,*56
$GPRMC,165833.048,A,3250.602796,N,03505.357902,E,64.9,208.2,140509,,,A*53
$GPGSA,A,3,21,26,08,29,27,10,02,06,24,09,,,1.32,0.78,1.07*00
$GPGSV,3,1,12,29,68,282,46,10,63,046,46,26,56,260,50,02,37,161,44*75
$GPGSV,3,2,12,08,35,057,49,47,32,125,46,24,20,152,47,06,16,274,42*7B
$GPGSV,3,3,12,27,13,039,41,21,09,319,46,09,06,197,34,04,03,149,17*7B
$GPGGA,165834.049,3250.586906,N,03505.347746,E,1,10,0.78,3.0,M,0.0,M,,*57
$GPRMC,165834.049,A,3250.586906,N,03505.347746,E,64.9,208.2,140509,,,A*52
$GPGGA,165835.051,3250.571015,N,03505.337591,E,1,10,0.78,3.0,M,0.0,M,,*53
$GPRMC,165835.051,A,3250.571015,N,03505.337591,E,64.9,208.2,140509,,,A*56
$GPGGA,165836.052,3250.555125,N,03505.327435,E,1,10,0.78,3.0,M,0.0,M,,*59
$GPRMC,165836.052,A,3250.555125,N,03505.327435,E,64.9,208.2,140509,,,A*5C
$GPGSA,A,3,21,26,08,29,27,10,02,06,24,09,,,1.32,0.78,1.07*00
$GPGSV,3,1,12,29,68,282,46,10,63,046,46,26,56,260,50,02,37,161,44*75
$GPGSV,3,2,12,08,35,057,49,47,32,125,46,24,20,152,47,06,16,274,42*7B
$GPGSV,3,3,12,27,13,039,41,21,09,319,46,09,06,197,34,04,03,149,17*7B
$GPGGA,165837.053,3250.539234,N,03505.317279,E,1,10,0.78,3.0,M,0.0,M,,*5D
$GPRMC,165837.053,A,3250.539234,N,03505.317279,E,64.9,208.2,140509,,,A*58
$GPGGA,165838.055,3250.523344,N,03505.307124,E,1,10,0.78,3.0,M,0.0,M,,*53
$GPRMC,165838.055,A,3250.523344,N,03505.307124,E,64.9,208.2,140509,,,A*56
$GPGGA,165839.056,3250.507454,N,03505.296968,E,1,10,0.78,3.0,M,0.0,M,,*58
$GPRMC,165839.056,A,3250.507454,N,03505.296968,E,64.9,208.2,140509,,,A*5D
$GPGSA,A,3,21,26,08,29,27,10,02,06,24,09,,,1.32,0.78,1.07*00
$GPGSV,3,1,12,29,68,282,46,10,63,046,46,26,56,260,50,02,37,161,44*75
$GPGSV,3,2,12,08,35,057,49,47,32,125,46,24,20,152,47,06,16,274,42*7B
$GPGSV,3,3,12,27,13,039,41,21,09,319,46,09,06,197,34,04,03,149,17*7B
$GPGGA,165840.058,3250.491563,N,03505.286813,E,1,10,0.78,3.0,M,0.0,M,,*5F
$GPRMC,165840.058,A,3250.491563,N,03505.286813,E,64.9,208.2,140509,,,A*5A
$GPGGA,165841.059,3250.475673,N,03505.276657,E,1,10,0.78,3.0,M,0.0,M,,*56
$GPRMC,165841.059,A,3250.475673,N,03505.276657,E,64.9,208.2,140509,,,A*53
$GPGGA,165842.061,3250.459782,N,03505.266502,E,1,10,0.78,3.0,M,0.0,M,,*5D
$GPRMC,165842.061,A,3250.459782,N,03505.266502,E,64.9,208.2,140509,,,A*58
$GPGSA,A,3,21,26,08,29,27,10,02,06,24,09,,,1.32,0.78,1.07*00
$GPGSV,3,1,12,29,68,282,46,10,63,046,46,26,56,260,50,02,37,161,44*75
$GPGSV,3,2,12,08,35,057,49,47,32,125,46,24,20,152,47,06,16,274,42*7B
$GPGSV,3,3,12,27,13,039,41,21,09,319,46,09,06,197,34,04,03,149,17*7B
$GPGGA,165843.062,3250.443892,N,03505.256347,E,1,10,0.78,3.0,M,0.0,M,,*5E
$GPRMC,165843.062,A,3250.443892,N,03505.256347,E,64.9,208.2,140509,,,A*5B
$GPGGA,165844.064,3250.428001,N,03505.246192,E,1,10,0.78,3.0,M,0.0,M,,*5B
$GPRMC,165844.064,A,3250.428001,N,03505.246192,E,64.9,208.2,140509,,,A*5E
$GPGGA,165845.065,3250.412111,N,03505.236036,E,1,10,0.78,3.0,M,0.0,M,,*5A
$GPRMC,165845.065,A,3250.412111,N,03505.236036,E,64.9,208.2,140509,,,A*5F
$GPGSA,A,3,21,26,08,29,27,10,02,06,24,09,,,1.32,0.78,1.07*00
$GPGSV,3,1,12,29,68,282,46,10,63,046,46,26,56,260,50,02,37,161,44*75
$GPGSV,3,2,12,08,35,057,49,47,32,125,46,24,20,152,47,06,16,274,42*7B
$GPGSV,3,3,12,27,13,039,41,21,09,319,46,09,06,197,34,04,03,149,17*7B
$GPGGA,165846.066,3250.396220,N,03505.225881,E,1,10,0.78,3.0,M,0.0,M,,*56
$GPRMC,165846.066,A,3250.396220,N,03505.225881,E,64.9,208.2,140509,,,A*53
$GPGGA,165847.068,3250.380330,N,03505.215726,E,1,10,0.78,3.0,M,0.0,M,,*5F
$GPRMC,165847.068,A,3250.380330,N,03505.215726,E,64.9,208.2,140509,,,A*5A
$GPGGA,165848.069,3250.364439,N,03505.205571,E,1,10,0.78,3.0,M,0.0,M,,*54
$GPRMC,165848.069,A,3250.364439,N,03505.205571,E,64.9,208.2,140509,,,A*51
$GPGSA,A,3,21,26,08,29,27,10,02,06,24,09,,,1.32,0.78,1.07*00
$GPGSV,3,1,12,29,68,282,46,10,63,046,46,26,56,260,50,02,37,161,44*75
$GPGSV,3,2,12,08,35,057,49,47,32,125,46,24,20,152,47,06,16,274,42*7B
$GPGSV,3,3,12,27,13,039,41,21,09,319,46,09,06,197,34,04,03,149,17*7B
$GPGGA,165849.071,3250.348549,N,03505.195416,E,1,10,0.78,3.0,M,0.0,M,,*5E
$GPRMC,165849.071,A,3250.348549,N,03505.195416,E,64.9,208.2,140509,,,A*5B
$GPGGA,165850.072,3250.332658,N,03505.185262,E,1,10,0.78,3.0,M,0.0,M,,*5F
$GPRMC,165850.072,A,3250.332658,N,03505.185262,E,64.9,208.2,140509,,,A*5A
$GPGGA,165851.074,3250.316768,N,03505.175107,E,1,10,0.78,3.0,M,0.0,M,,*53
$GPRMC,165851.074,A,3250.316768,N,03505.175107,E,64.9,208.2,140509,,,A*56
$GPGSA,A,3,21,26,08,29,27,10,02,06,24,09,,,1.32,0.78,1.07*00
$GPGSV,3,1,12,29,68,282,46,10,63,046,46,26,56,260,50,02,37,161,44*75
$GPGSV,3,2,12,08,35,057,49,47,32,125,46,24,20,152,47,06,16,274,42*7B
$GPGSV,3,3,12,27,13,039,41,21,09,319,46,09,06,197,34,04,03,149,17*7B
$GPGGA,165852.075,3250.300877,N,03505.164952,E,1,10,0.78,3.0,M,0.0,M,,*5F
$GPRMC,165852.075,A,3250.300877,N,03505.164952,E,64.9,208.2,140509,,,A*5A
$GPGGA,165853.077,3250.284986,N,03505.154797,E,1,10,0.78,3.0,M,0.0,M,,*5A
$GPRMC,165853.077,A,3250.284986,N,03505.154797,E,64.9,208.2,140509,,,A*5F
$GPGGA,165854.078,3250.269096,N,03505.144643,E,1,10,0.78,3.0,M,0.0,M,,*50
$GPRMC,165854.078,A,3250.269096,N,03505.144643,E,64.9,208.2,140509,,,A*55
$GPGSA,A,3,21,26,08,29,27,10,02,06,24,09,,,1.32,0.78,1.07*00
$GPGSV,3,1,12,29,68,282,46,10,63,046,46,26,56,260,50,02,37,161,44*75
$GPGSV,3,2,12,08,35,057,49,47,32,125,46,24,20,152,47,06,16,274,42*7B
$GPGSV,3,3,12,27,13,039,41,21,09,319,46,09,06,197,34,04,03,149,17*7B
$GPGGA,165855.079,3250.253205,N,03505.134488,E,1,10,0.78,3.0,M,0.0,M,,*53
$GPRMC,165855.079,A,3250.253205,N,03505.134488,E,64.9,208.2,140509,,,A*56
$GPGGA,165856.081,3250.237315,N,03505.124334,E,1,10,0.78,3.0,M,0.0,M,,*54
$GPRMC,165856.081,A,3250.237315,N,03505.124334,E,64.9,208.2,140509,,,A*51
$GPGGA,165857.082,3250.221424,N,03505.114179,E,1,10,0.78,3.0,M,0.0,M,,*5C
$GPRMC,165857.082,A,3250.221424,N,03505.114179,E,64.9,208.2,140509,,,A*59
$GPGSA,A,3,21,26,08,29,27,10,02,06,24,09,,,1.32,0.78,1.07*00
$GPGSV,3,1,12,29,68,282,46,10,63,046,46,26,56,260,50,02,37,161,44*75
$GPGSV,3,2,12,08,35,057,49,47,32,125,46,24,20,152,47,06,16,274,42*7B
$GPGSV,3,3,12,27,13,039,41,21,09,319,46,09,06,197,34,04,03,149,17*7B
$GPGGA,165858.084,3250.205533,N,03505.104025,E,1,10,0.78,3.0,M,0.0,M,,*5D
$GPRMC,165858.084,A,3250.205533,N,03505.104025,E,64.9,208.2,140509,,,A*58
$GPGGA,165859.085,3250.189643,N,03505.093871,E,1,10,0.78,3.0,M,0.0,M,,*58
$GPRMC,165859.085,A,3250.189643,N,03505.093871,E,64.9,208.2,140509,,,A*5D
$GPGGA,165900.087,3250.173752,N,03505.083716,E,1,10,0.78,3.0,M,0.0,M,,*5C
$GPRMC,165900.087,A,3250.173752,N,03505.083716,E,64.9,208.2,140509,,,A*59
$GPGSA,A,3,21,26,08,29,27,10,02,06,24,09,,,1.32,0.78,1.07*00
$GPGSV,3,1,12,29,68,282,46,10,63,046,46,26,56,260,50,02,37,161,44*75
$GPGSV,3,2,12,08,35,057,49,47,32,125,46,24,20,152,47,06,16,274,42*7B
$GPGSV,3,3,12,27,13,039,41,21,09,319,46,09,06,197,34,04,03,149,17*7B
$GPGGA,165901.088,3250.157861,N,03505.073562,E,1,10,0.78,3.0,M,0.0,M,,*55
$GPRMC,165901.088,A,3250.157861,N,03505.073562,E,64.9,208.2,140509,,,A*50
$GPGGA,165902.087,3250.141970,N,03505.063408,E,1,10,0.78,3.0,M,0.0,M,,*53
$GPRMC,165902.087,A,3250.141970,N,03505.063408,E,64.9,208.2,140509,,,A*56
$GPGGA,165903.089,3250.126080,N,03505.053254,E,1,10,0.78,3.0,M,0.0,M,,*57
$GPRMC,165903.089,A,3250.126080,N,03505.053254,E,64.9,208.2,140509,,,A*52
$GPGSA,A,3,21,26,08,29,27,10,02,06,24,09,,,1.32,0.78,1.07*00
$GPGSV,3,1,12,29,68,282,46,10,63,046,46,26,56,260,50,02,37,161,44*75
$GPGSV,3,2,12,08,35,057,49,47,32,125,46,24,20,152,47,06,16,274,42*7B
$GPGSV,3,3,12,27,13,039,41,21,09,319,46,09,06,197,34,04,03,149,17*7B
$GPGGA,165904.090,3250.110189,N,03505.043100,E,1,10,0.78,3.0,M,0.0,M,,*56
$GPRMC,165904.090,A,3250.110189,N,03505.043100,E,64.9,208.2,140509,,,A*53
$GPGGA,165905.091,3250.094298,N,03505.032946,E,1,10,0.78,3.0,M,0.0,M,,*54
$GPRMC,165905.091,A,3250.094298,N,03505.032946,E,64.9,208.2,140509,,,A*51
$GPGGA,165906.093,3250.078407,N,03505.022792,E,1,10,0.78,3.0,M,0.0,M,,*51
$GPRMC,165906.093,A,3250.078407,N,03505.022792,E,64.9,208.2,140509,,,A*54
$GPGSA,A,3,21,26,08,29,27,10,02,06,24,09,,,1.32,0.78,1.07*00
$GPGSV,3,1,12,29,68,282,46,10,63,046,46,26,56,260,50,02,37,161,44*75
$GPGSV,3,2,12,08,35,057,49,47,32,125,46,24,20,152,47,06,16,274,42*7B
$GPGSV,3,3,12,27,13,039,41,21,09,319,46,09,06,197,34,04,03,149,17*7B
$GPGGA,165907.094,3250.062517,N,03505.012638,E,1,10,0.78,3.0,M,0.0,M,,*5E
$GPRMC,165907.094,A,3250.062517,N,03505.012638,E,64.9,208.2,140509,,,A*5B
$GPGGA,165908.096,3250.046626,N,03505.002485,E,1,10,0.78,3.0,M,0.0,M,,*51
$GPRMC,165908.096,A,3250.046626,N,03505.002485,E,64.9,208.2,140509,,,A*54
$GPGGA,165909.097,3250.030735,N,03504.992331,E,1,10,0.78,3.0,M,0.0,M,,*5A
$GPRMC,165909.097,A,3250.030735,N,03504.992331,E,64.9,208.2,140509,,,A*5F
$GPGSA,A,3,21,26,08,29,27,10,02,06,24,09,,,1.32,0.78,1.07*00
$GPGSV,3,1,12,29,68,282,46,10,63,046,46,26,56,260,50,02,37,161,44*75
$GPGSV,3,2,12,08,35,057,49,47,32,125,46,24,20,152,47,06,16,274,42*7B
$GPGSV,3,3,12,27,13,039,41,21,09,319,46,09,06,197,34,04,03,149,17*7B
$GPGGA,165910.099,3250.014844,N,03504.982177,E,1,10,0.78,3.0,M,0.0,M,,*52
$GPRMC,165910.099,A,3250.014844,N,03504.982177,E,64.9,208.2,140509,,,A*57
$GPGGA,165911.100,3249.998953,N,03504.972024,E,1,10,0.78,3.0,M,0.0,M,,*58
$GPRMC,165911.100,A,3249.998953,N,03504.972024,E,64.9,208.2,140509,,,A*5D
$GPGGA,165912.101,3249.983062,N,03504.961870,E,1,10,0.78,3.0,M,0.0,M,,*50
$GPRMC,165912.101,A,3249.983062,N,03504.961870,E,64.9,208.2,140509,,,A*55
$GPGSA,A,3,21,26,08,29,27,10,02,06,24,09,,,1.32,0.78,1.07*00
$GPGSV,3,1,12,29,68,282,46,10,63,046,46,26,56,260,50,02,37,161,44*75
$GPGSV,3,2,12,08,35,057,49,47,32,125,46,24,20,152,47,06,16,274,42*7B
$GPGSV,3,3,12,27,13,039,41,21,09,319,46,09,06,197,34,04,03,149,17*7B
$GPGGA,165913.103,3249.967172,N,03504.951717,E,1,10,0.78,3.0,M,0.0,M,,*54
$GPRMC,165913.103,A,3249.967172,N,03504.951717,E,64.9,208.2,140509,,,A*51
$GPGGA,165914.104,3249.951281,N,03504.941563,E,1,10,0.78,3.0,M,0.0,M,,*5E
$GPRMC,165914.104,A,3249.951281,N,03504.941563,E,64.9,208.2,140509,,,A*5B
$GPGGA,165915.106,3249.935390,N,03504.931410,E,1,10,0.78,3.0,M,0.0,M,,*5C
$GPRMC,165915.106,A,3249.935390,N,03504.931410,E,64.9,208.2,140509,,,A*59
$GPGSA,A,3,21,26,08,29,27,10,02,06,24,09,,,1.32,0.78,1.07*00
$GPGSV,3,1,12,29,68,282,46,10,63,046,46,26,56,260,50,02,37,161,44*75
$GPGSV,3,2,12,08,35,057,49,47,32,125,46,24,20,152,47,06,16,274,42*7B
$GPGSV,3,3,12,27,13,039,41,21,09,319,46,09,06,197,34,04,03,149,17*7B
$GPGGA,165916.107,3249.919499,N,03504.921257,E,1,10,0.78,3.0,M,0.0,M,,*5A
$GPRMC,165916.107,A,3249.919499,N,03504.921257,E,64.9,208.2,140509,,,A*5F
$GPGGA,165917.109,3249.903608,N,03504.911104,E,1,10,0.78,3.0,M,0.0,M,,*52
$GPRMC,165917.109,A,3249.903608,N,03504.911104,E,64.9,208.2,140509,,,A*57
$GPGGA,165918.110,3249.887717,N,03504.900950,E,1,10,0.78,3.0,M,0.0,M,,*5E
$GPRMC,165918.110,A,3249.887717,N,03504.900950,E,64.9,208.2,140509,,,A*5B
$GPGSA,A,3,21,26,08,29,27,10,02,06,24,09,,,1.32,0.78,1.07*00
$GPGSV,3,1,12,29,68,282,46,10,63,046,46,26,56,260,50,02,37,161,44*75
$GPGSV,3,2,12,08,35,057,49,47,32,125,46,24,20,152,47,06,16,274,42*7B
$GPGSV,3,3,12,27,13,039,41,21,09,319,46,09,06,197,34,04,03,149,17*7B
$GPGGA,165919.112,3249.871826,N,03504.890797,E,1,10,0.78,3.0,M,0.0,M,,*54
$GPRMC,165919.112,A,3249.871826,N,03504.890797,E,64.9,208.2,140509,,,A*51
$GPGGA,165920.113,3249.855935,N,03504.880644,E,1,10,0.78,3.0,M,0.0,M,,*54
$GPRMC,165920.113,A,3249.855935,N,03504.880644,E,64.9,208.2,140509,,,A*51
$GPGGA,165921.114,3249.840044,N,03504.870491,E,1,10,0.78,3.0,M,0.0,M,,*5C
$GPRMC,165921.114,A,3249.840044,N,03504.870491,E,64.9,208.2,140509,,,A*59
$GPGSA,A,3,21,26,08,29,27,10,02,06,24,09,,,1.32,0.78,1.07*00
$GPGSV,3,1,12,29,68,282,46,10,63,046,46,26,56,260,50,02,37,161,44*75
$GPGSV,3,2,12,08,35,057,49,47,32,125,46,24,20,152,47,06,16,274,42*7B
$GPGSV,3,3,12,27,13,039,41,21,09,319,46,09,06,197,34,04,03,149,17*7B
$GPGGA,165922.116,3249.824153,N,03504.860338,E,1,10,0.78,3.0,M,0.0,M,,*5D
$GPRMC,165922.116,A,3249.824153,N,03504.860338,E,64.9,208.2,140509,,,A*58
$GPGGA,165923.117,3249.808262,N,03504.850186,E,1,10,0.78,3.0,M,0.0,M,,*56
$GPRMC,165923.117,A,3249.808262,N,03504.850186,E,64.9,208.2,140509,,,A*53
$GPGGA,165924.119,3249.792371,N,03504.840033,E,1,10,0.78,3.0,M,0.0,M,,*5E
$GPRMC,165924.119,A,3249.792371,N,03504.840033,E,64.9,208.2,140509,,,A*5B
$GPGSA,A,3,21,26,08,29,27,10,02,06,24,09,,,1.32,0.78,1.07*00
$GPGSV,3,1,12,29,68,282,46,10,63,046,46,26,56,260,50,02,37,161,44*75
$GPGSV,3,2,12,08,35,057,49,47,32,125,46,24,20,152,47,06,16,274,42*7B
$GPGSV,3,3,12,27,13,039,41,21,09,319,46,09,06,197,34,04,03,149,17*7B
$GPGGA,165925.120,3249.776480,N,03504.829880,E,1,10,0.78,3.0,M,0.0,M,,*59
$GPRMC,165925.120,A,3249.776480,N,03504.829880,E,64.9,208.2,140509,,,A*5C
$GPGGA,165926.122,3249.792371,N,03504.840033,E,1,10,0.78,3.0,M,0.0,M,,*54
$GPRMC,165926.122,A,3249.792371,N,03504.840033,E,64.9,28.2,140509,,,A*61
$GPGGA,165927.123,3249.808262,N,03504.850186,E,1,10,0.78,3.0,M,0.0,M,,*55
$GPRMC,165927.123,A,3249.808262,N,03504.850186,E,64.9,28.2,140509,,,A*60
$GPGSA,A,3,21,26,08,29,27,10,02,06,24,09,,,1.32,0.78,1.07*00
$GPGSV,3,1,12,29,68,282,46,10,63,046,46,26,56,260,50,02,37,161,44*75
$GPGSV,3,2,12,08,35,057,49,47,32,125,46,24,20,152,47,06,16,274,42*7B
$GPGSV,3,3,12,27,13,039,41,21,09,319,46,09,06,197,34,04,03,149,17*7B
$GPGGA,165928.125,3249.824153,N,03504.860338,E,1,10,0.78,3.0,M,0.0,M,,*57
$GPRMC,165928.125,A,3249.824153,N,03504.860338,E,64.9,28.2,140509,,,A*62
$GPGGA,165929.126,3249.840044,N,03504.870491,E,1,10,0.78,3.0,M,0.0,M,,*55
$GPRMC,165929.126,A,3249.840044,N,03504.870491,E,64.9,28.2,140509,,,A*60
$GPGGA,165930.127,3249.855935,N,03504.880644,E,1,10,0.78,3.0,M,0.0,M,,*52
$GPRMC,165930.127,A,3249.855935,N,03504.880644,E,64.9,28.2,140509,,,A*67
$GPGSA,A,3,21,26,08,29,27,10,02,06,24,09,,,1.32,0.78,1.07*00
$GPGSV,3,1,12,29,68,282,46,10,63,046,46,26,56,260,50,02,37,161,44*75
$GPGSV,3,2,12,08,35,057,49,47,32,125,46,24,20,152,47,06,16,274,42*7B
$GPGSV,3,3,12,27,13,039,41,21,09,319,46,09,06,197,34,04,03,149,17*7B
$GPGGA,165931.129,3249.871826,N,03504.890797,E,1,10,0.78,3.0,M,0.0,M,,*56
$GPRMC,165931.129,A,3249.871826,N,03504.890797,E,64.9,28.2,140509,,,A*63
$GPGGA,165932.130,3249.887717,N,03504.900950,E,1,10,0.78,3.0,M,0.0,M,,*54
$GPRMC,165932.130,A,3249.887717,N,03504.900950,E,64.9,28.2,140509,,,A*61
$GPGGA,165933.132,3249.903608,N,03504.911104,E,1,10,0.78,3.0,M,0.0,M,,*5C
$GPRMC,165933.132,A,3249.903608,N,03504.911104,E,64.9,28.2,140509,,,A*69
$GPGSA,A,3,21,26,08,29,27,10,02,06,24,09,,,1.32,0.78,1.07*00
$GPGSV,3,1,12,29,68,282,46,10,63,046,46,26,56,260,50,02,37,161,44*75
$GPGSV,3,2,12,08,35,057,49,47,32,125,46,24,20,152,47,06,16,274,42*7B
$GPGSV,3,3,12,27,13,039,41,21,09,319,46,09,06,197,34,04,03,149,17*7B
$GPGGA,165934.133,3249.919499,N,03504.921257,E,1,10,0.78,3.0,M,0.0,M,,*5D
$GPRMC,165934.133,A,3249.919499,N,03504.921257,E,64.9,28.2,140509,,,A*68
$GPGGA,165935.135,3249.935390,N,03504.931410,E,1,10,0.78,3.0,M,0.0,M,,*5E
$GPRMC,165935.135,A,3249.935390,N,03504.931410,E,64.9,28.2,140509,,,A*6B
$GPGGA,165936.136,3249.951281,N,03504.941563,E,1,10,0.78,3.0,M,0.0,M,,*5F
$GPRMC,165936.136,A,3249.951281,N,03504.941563,E,64.9,28.2,140509,,,A*6A
$GPGSA,A,3,21,26,08,29,27,10,02,06,24,09,,,1.32,0.78,1.07*00
$GPGSV,3,1,12,29,68,282,46,10,63,046,46,26,56,260,50,02,37,161,44*75
$GPGSV,3,2,12,08,35,057,49,47,32,125,46,24,20,152,47,06,16,274,42*7B
$GPGSV,3,3,12,27,13,039,41,21,09,319,46,09,06,197,34,04,03,149,17*7B
$GPGGA,165937.137,3249.967172,N,03504.951717,E,1,10,0.78,3.0,M,0.0,M,,*55
$GPRMC,165937.137,A,3249.967172,N,03504.951717,E,64.9,28.2,140509,,,A*60
$GPGGA,165938.139,3249.983062,N,03504.961870,E,1,10,0.78,3.0,M,0.0,M,,*53
$GPRMC,165938.139,A,3249.983062,N,03504.961870,E,64.9,28.2,140509,,,A*66
$GPGGA,165939.140,3249.998953,N,03504.972024,E,1,10,0.78,3.0,M,0.0,M,,*56
$GPRMC,165939.140,A,3249.998953,N,03504.972024,E,64.9,28.2,140509,,,A*63
$GPGSA,A,3,21,26,08,29,27,10,02,06,24,09,,,1.32,0.78,1.07*00
$GPGSV,3,1,12,29,68,282,46,10,63,046,46,26,56,260,50,02,37,161,44*75
$GPGSV,3,2,12,08,35,057,49,47,32,125,46,24,20,152,47,06,16,274,42*7B
$GPGSV,3,3,12,27,13,039,41,21,09,319,46,09,06,197,34,04,03,149,17*7B
$GPGGA,165940.142,3250.014844,N,03504.982177,E,1,10,0.78,3.0,M,0.0,M,,*50
$GPRMC,165940.142,A,3250.014844,N,03504.982177,E,64.9,28.2,140509,,,A*65
$GPGGA,165941.143,3250.030735,N,03504.992331,E,1,10,0.78,3.0,M,0.0,M,,*5E
$GPRMC,165941.143,A,3250.030735,N,03504.992331,E,64.9,28.2,140509,,,A*6B
$GPGGA,165942.145,3250.046626,N,03505.002485,E,1,10,0.78,3.0,M,0.0,M,,*50
$GPRMC,165942.145,A,3250.046626,N,03505.002485,E,64.9,28.2,140509,,,A*65
$GPGSA,A,3,21,26,08,29,27,10,02,06,24,09,,,1.32,0.78,1.07*00
$GPGSV,3,1,12,29,68,282,46,10,63,046,46,26,56,260,50,02,37,161,44*75
$GPGSV,3,2,12,08,35,057,49,47,32,125,46,24,20,152,47,06,16,274,42*7B
$GPGSV,3,3,12,27,13,039,41,21,09,319,46,09,06,197,34,04,03,149,17*7B
$GPGGA,165943.146,3250.062517,N,03505.012638,E,1,10,0.78,3.0,M,0.0,M,,*50
$GPRMC,165943.146,A,3250.062517,N,03505.012638,E,64.9,28.2,140509,,,A*65
$GPGGA,165944.148,3250.078407,N,03505.022792,E,1,10,0.78,3.0,M,0.0,M,,*50
$GPRMC,165944.148,A,3250.078407,N,03505.022792,E,64.9,28.2,140509,,,A*65
$GPGGA,165945.149,3250.094298,N,03505.032946,E,1,10,0.78,3.0,M,0.0,M,,*54
$GPRMC,165945.149,A,3250.094298,N,03505.032946,E,64.9,28.2,140509,,,A*61
$GPGSA,A,3,21,26,08,29,27,10,02,06,24,09,,,1.32,0.78,1.07*00
$GPGSV,3,1,12,29,68,282,46,10,63,046,46,26,56,260,50,02,37,161,44*75
$GPGSV,3,2,12,08,35,057,49,47,32,125,46,24,20,152,47,06,16,274,42*7B
$GPGSV,3,3,12,27,13,039,41,21,09,319,46,09,06,197,34,04,03,149,17*7B
$GPGGA,165946.150,3250.110189,N,03505.043100,E,1,10,0.78,3.0,M,0.0,M,,*5D
$GPRMC,165946.150,A,3250.110189,N,03505.043100,E,64.9,28.2,140509,,,A*68
$GPGGA,165947.152,3250.126080,N,03505.053254,E,1,10,0.78,3.0,M,0.0,M,,*50
$GPRMC,165947.152,A,3250.126080,N,03505.053254,E,64.9,28.2,140509,,,A*65
$GPGGA,165948.153,3250.141970,N,03505.063408,E,1,10,0.78,3.0,M,0.0,M,,*55
$GPRMC,165948.153,A,3250.141970,N,03505.063408,E,64.9,28.2,140509,,,A*60
$GPGSA,A,3,21,26,08,29,27,10,02,06,24,09,,,1.32,0.78,1.07*00
$GPGSV,3,1,12,29,68,282,46,10,63,046,46,26,56,260,50,02,37,161,44*75
$GPGSV,3,2,12,08,35,057,49,47,32,125,46,24,20,152,47,06,16,274,42*7B
$GPGSV,3,3,12,27,13,039,41,21,09,319,46,09,06,197,34,04,03,149,17*7B
$GPGGA,165949.155,3250.157861,N,03505.073562,E,1,10,0.78,3.0,M,0.0,M,,*58
$GPRMC,165949.155,A,3250.157861,N,03505.073562,E,64.9,28.2,140509,,,A*6D
$GPGGA,165950.156,3250.173752,N,03505.083716,E,1,10,0.78,3.0,M,0.0,M,,*54
$GPRMC,165950.156,A,3250.173752,N,03505.083716,E,64.9,28.2,140509,,,A*61
$GPGGA,165951.158,3250.189643,N,03505.093871,E,1,10,0.78,3.0,M,0.0,M,,*50
$GPRMC,165951.158,A,3250.189643,N,03505.093871,E,64.9,28.2,140509,,,A*65
$GPGSA,A,3,21,26,08,29,27,10,02,06,24,09,,,1.32,0.78,1.07*00
$GPGSV,3,1,12,29,68,282,46,10,63,046,46,26,56,260,50,02,37,161,44*75
$GPGSV,3,2,12,08,35,057,49,47,32,125,46,24,20,152,47,06,16,274,42*7B
$GPGSV,3,3,12,27,13,039,41,21,09,319,46,09,06,197,34,04,03,149,17*7B
$GPGGA,165952.159,3250.205533,N,03505.104025,E,1,10,0.78,3.0,M,0.0,M,,*57
$GPRMC,165952.159,A,3250.205533,N,03505.104025,E,64.9,28.2,140509,,,A*62
$GPGGA,165953.161,3250.221424,N,03505.114179,E,1,10,0.78,3.0,M,0.0,M,,*55
$GPRMC,165953.161,A,3250.221424,N,03505.114179,E,64.9,28.2,140509,,,A*60
$GPGGA,165954.162,3250.237315,N,03505.124334,E,1,10,0.78,3.0,M,0.0,M,,*5B
$GPRMC,165954.162,A,3250.237315,N,03505.124334,E,64.9,28.2,140509,,,A*6E
$GPGSA,A,3,21,26,08,29,27,10,02,06,24,09,,,1.32,0.78,1.07*00
$GPGSV,3,1,12,29,68,282,46,10,63,046,46,26,56,260,50,02,37,161,44*75
$GPGSV,3,2,12,08,35,057,49,47,32,125,46,24,20,152,47,06,16,274,42*7B
$GPGSV,3,3,12,27,13,039,41,21,09,319,46,09,06,197,34,04,03,149,17*7B
$GPGGA,165955.163,3250.253205,N,03505.134488,E,1,10,0.78,3.0,M,0.0,M,,*58
$GPRMC,165955.163,A,3250.253205,N,03505.134488,E,64.9,28.2,140509,,,A*6D
$GPGGA,165956.165,3250.269096,N,03505.144643,E,1,10,0.78,3.0,M,0.0,M,,*5E
$GPRMC,165956.165,A,3250.269096,N,03505.144643,E,64.9,28.2,140509,,,A*6B
$GPGGA,165957.166,3250.284986,N,03505.154797,E,1,10,0.78,3.0,M,0.0,M,,*5E
$GPRMC,165957.166,A,3250.284986,N,03505.154797,E,64.9,28.2,140509,,,A*6B
$GPGSA,A,3,21,26,08,29,27,10,02,06,24,09,,,1.32,0.78,1.07*00
$GPGSV,3,1,12,29,68,282,46,10,63,046,46,26,56,260,50,02,37,161,44*75
$GPGSV,3,2,12,08,35,057,49,47,32,125,46,24,20,152,47,06,16,274,42*7B
$GPGSV,3,3,12,27,13,039,41,21,09,319,46,09,06,197,34,04,03,149,17*7B
$GPGGA,165958.168,3250.300877,N,03505.164952,E,1,10,0.78,3.0,M,0.0,M,,*59
$GPRMC,165958.168,A,3250.300877,N,03505.164952,E,64.9,28.2,140509,,,A*6C
$GPGGA,165959.169,3250.316768,N,03505.175107,E,1,10,0.78,3.0,M,0.0,M,,*57
$GPRMC,165959.169,A,3250.316768,N,03505.175107,E,64.9,28.2,140509,,,A*62
$GPGGA,170000.171,3250.332658,N,03505.185262,E,1,10,0.78,3.0,M,0.0,M,,*54
$GPRMC,170000.171,A,3250.332658,N,03505.185262,E,64.9,28.2,140509,,,A*61
$GPGSA,A,3,21,26,08,29,27,10,02,06,24,09,,,1.32,0.78,1.07*00
$GPGSV,3,1,12,29,68,282,46,10,63,046,46,26,56,260,50,02,37,161,44*75
$GPGSV,3,2,12,08,35,057,49,47,32,125,46,24,20,152,47,06,16,274,42*7B
$GPGSV,3,3,12,27,13,039,41,21,09,319,46,09,06,197,34,04,03,149,17*7B
$GPGGA,170001.172,3250.348549,N,03505.195416,E,1,10,0.78,3.0,M,0.0,M,,*5C
$GPRMC,170001.172,A,3250.348549,N,03505.195416,E,64.9,28.2,140509,,,A*69
$GPGGA,170002.176,3250.364439,N,03505.205571,E,1,10,0.78,3.0,M,0.0,M,,*59
$GPRMC,170002.176,A,3250.364439,N,03505.205571,E,64.9,28.2,140509,,,A*6C
$GPGGA,170003.177,3250.380330,N,03505.215726,E,1,10,0.78,3.0,M,0.0,M,,*5C
$GPRMC,170003.177,A,3250.380330,N,03505.215726,E,64.9,28.2,140509,,,A*69
$GPGSA,A,3,21,26,08,29,27,10,02,06,24,09,,,1.32,0.78,1.07*00
$GPGSV,3,1,12,29,68,282,46,10,63,046,46,26,56,260,50,02,37,161,44*75
$GPGSV,3,2,12,08,35,057,49,47,32,125,46,24,20,152,47,06,16,274,42*7B
$GPGSV,3,3,12,27,13,039,41,21,09,319,46,09,06,197,34,04,03,149,17*7B
$GPGGA,170004.179,3250.396220,N,03505.225881,E,1,10,0.78,3.0,M,0.0,M,,*53
$GPRMC,170004.179,A,3250.396220,N,03505.225881,E,64.9,28.2,140509,,,A*66
$GPGGA,170005.180,3250.412111,N,03505.236036,E,1,10,0.78,3.0,M,0.0,M,,*58
$GPRMC,170005.180,A,3250.412111,N,03505.236036,E,64.9,28.2,140509,,,A*6D
$GPGGA,170006.182,3250.428001,N,03505.246192,E,1,10,0.78,3.0,M,0.0,M,,*58
$GPRMC,170006.182,A,3250.428001,N,03505.246192,E,64.9,28.2,140509,,,A*6D
$GPGSA,A,3,21,26,08,29,27,10,02,06,24,09,,,1.32,0.78,1.07*00
$GPGSV,3,1,12,29,68,282,46,10,63,046,46,26,56,260,50,02,37,161,44*75
$GPGSV,3,2,12,08,35,057,49,47,32,125,46,24,20,152,47,06,16,274,42*7B
$GPGSV,3,3,12,27,13,039,41,21,09,319,46,09,06,197,34,04,03,149,17*7B
$GPGGA,170007.183,3250.443892,N,03505.256347,E,1,10,0.78,3.0,M,0.0,M,,*5C
$GPRMC,170007.183,A,3250.443892,N,03505.256347,E,64.9,28.2,140509,,,A*69
$GPGGA,170008.185,3250.459782,N,03505.266502,E,1,10,0.78,3.0,M,0.0,M,,*54
$GPRMC,170008.185,A,3250.459782,N,03505.266502,E,64.9,28.2,140509,,,A*61
$GPGGA,170009.186,3250.475673,N,03505.276657,E,1,10,0.78,3.0,M,0.0,M,,*55
$GPRMC,170009.186,A,3250.475673,N,03505.276657,E,64.9,28.2,140509,,,A*60
$GPGSA,A,3,21,26,08,29,27,10,02,06,24,09,,,1.32,0.78,1.07*00
$GPGSV,3,1,12,29,68,282,46,10,63,046,46,26,56,260,50,02,37,161,44*75
$GPGSV,3,2,12,08,35,057,49,47,32,125,46,24,20,152,47,06,16,274,42*7B
$GPGSV,3,3,12,27,13,039,41,21,09,319,46,09,06,197,34,04,03,149,17*7B
$GPGGA,170010.188,3250.491563,N,03505.286813,E,1,10,0.78,3.0,M,0.0,M,,*5A
$GPRMC,170010.188,A,3250.491563,N,03505.286813,E,64.9,28.2,140509,,,A*6F
$GPGGA,170011.189,3250.507454,N,03505.296968,E,1,10,0.78,3.0,M,0.0,M,,*5D
$GPRMC,170011.189,A,3250.507454,N,03505.296968,E,64.9,28.2,140509,,,A*68
$GPGGA,170012.190,3250.523344,N,03505.307124,E,1,10,0.78,3.0,M,0.0,M,,*5F
$GPRMC,170012.190,A,3250.523344,N,03505.307124,E,64.9,28.2,140509,,,A*6A
$GPGSA,A,3,21,26,08,29,27,10,02,06,24,09,,,1.32,0.78,1.07*00
$GPGSV,3,1,12,29,68,282,46,10,63,046,46,26,56,260,50,02,37,161,44*75
$GPGSV,3,2,12,08,35,057,49,47,32,125,46,24,20,152,47,06,16,274,42*7B
$GPGSV,3,3,12,27,13,039,41,21,09,319,46,09,06,197,34,04,03,149,17*7B
$GPGGA,170013.192,3250.539234,N,03505.317279,E,1,10,0.78,3.0,M,0.0,M,,*5B
$GPRMC,170013.192,A,3250.539234,N,03505.317279,E,64.9,28.2,140509,,,A*6E
$GPGGA,170014.193,3250.555125,N,03505.327435,E,1,10,0.78,3.0,M,0.0,M,,*59
$GPRMC,170014.193,A,3250.555125,N,03505.327435,E,64.9,28.2,140509,,,A*6C
$GPGGA,170015.195,3250.571015,N,03505.337591,E,1,10,0.78,3.0,M,0.0,M,,*54
$GPRMC,170015.195,A,3250.571015,N,03505.337591,E,64.9,28.2,140509,,,A*61
$GPGSA,A,3,21,26,08,29,27,10,02,06,24,09,,,1.32,0.78,1.07*00
$GPGSV,3,1,12,29,68,282,46,10,63,046,46,26,56,260,50,02,37,161,44*75
$GPGSV,3,2,12,08,35,057,49,47,32,125,46,24,20,152,47,06,16,274,42*7B
$GPGSV,3,3,12,27,13,039,41,21,09,319,46,09,06,197,34,04,03,149,17*7B
$GPGGA,170016.196,3250.586906,N,03505.347746,E,1,10,0.78,3.0,M,0.0,M,,*58
$GPRMC,170016.196,A,3250.586906,N,03505.347746,E,64.9,28.2,140509,,,A*6D
$GPGGA,170017.198,3250.602796,N,03505.357902,E,1,10,0.78,3.0,M,0.0,M,,*50
$GPRMC,170017.198,A,3250.602796,N,03505.357902,E,64.9,28.2,140509,,,A*65
$GPGGA,170018.199,3250.618686,N,03505.368058,E,1,10,0.78,3.0,M,0.0,M,,*5F
$GPRMC,170018.199,A,3250.618686,N,03505.368058,E,64.9,28.2,140509,,,A*6A
$GPGSA,A,3,21,26,08,29,27,10,02,06,24,09,,,1.32,0.78,1.07*00
$GPGSV,3,1,12,29,68,282,46,10,63,046,46,26,56,260,50,02,37,161,44*75
$GPGSV,3,2,12,08,35,057,49,47,32,125,46,24,20,152,47,06,16,274,42*7B
$GPGSV,3,3,12,27,13,039,41,21,09,319,46,09,06,197,34,04,03,149,17*7B
$GPGGA,170019.200,3250.634577,N,03505.378214,E,1,10,0.78,3.0,M,0.0,M,,*55
$GPRMC,170019.200,A,3250.634577,N,03505.378214,E,64.9,28.2,140509,,,A*60
$GPGGA,170020.202,3250.650467,N,03505.388370,E,1,10,0.78,3.0,M,0.0,M,,*53
$GPRMC,170020.202,A,3250.650467,N,03505.388370,E,64.9,28.2,140509,,,A*66
$GPGGA,170021.203,3250.666357,N,03505.398526,E,1,10,0.78,3.0,M,0.0,M,,*56
$GPRMC,170021.203,A,3250.666357,N,03505.398526,E,64.9,28.2,140509,,,A*63
$GPGSA,A,3,21,26,08,29,27,10,02,06,24,09,,,1.32,0.78,1.07*00
$GPGSV,3,1,12,29,68,282,46,10,63,046,46,26,56,260,50,02,37,161,44*75
$GPGSV,3,2,12,08,35,057,49,47,32,125,46,24,20,152,47,06,16,274,42*7B
$GPGSV,3,3,12,27,13,039,41,21,09,319,46,09,06,197,34,04,03,149,17*7B
$GPGGA,170022.205,3250.682247,N,03505.408682,E,1,10,0.78,3.0,M,0.0,M,,*5A
$GPRMC,170022.205,A,3250.682247,N,03505.408682,E,64.9,28.2,140509,,,A*6F
$GPGGA,170023.206,3250.698138,N,03505.418838,E,1,10,0.78,3.0,M,0.0,M,,*56
$GPRMC,170023.206,A,3250.698138,N,03505.418838,E,64.9,28.2,140509,,,A*63
$GPGGA,170024.208,3250.714028,N,03505.428995,E,1,10,0.78,3.0,M,0.0,M,,*5F
$GPRMC,170024.208,A,3250.714028,N,03505.428995,E,64.9,28.2,140509,,,A*6A
$GPGSA,A,3,21,26,08,29,27,10,02,06,24,09,,,1.32,0.78,1.07*00
$GPGSV,3,1,12,29,68,282,46,10,63,046,46,26,56,260,50,02,37,161,44*75
$GPGSV,3,2,12,08,35,057,49,47,32,125,46,24,20,152,47,06,16,274,42*7B
$GPGSV,3,3,12,27,13,039,41,21,09,319,46,09,06,197,34,04,03,149,17*7B
$GPGGA,170025.209,3250.729918,N,03505.439151,E,1,10,0.78,3.0,M,0.0,M,,*5B
$GPRMC,170025.209,A,3250.729918,N,03505.439151,E,64.9,28.2,140509,,,A*6E
$GPGGA,170026.211,3250.745808,N,03505.449307,E,1,10,0.78,3.0,M,0.0,M,,*5D
$GPRMC,170026.211,A,3250.745808,N,03505.449307,E,64.9,28.2,140509,,,A*68
$GPGGA,170027.212,3250.761699,N,03505.459464,E,1,10,0.78,3.0,M,0.0,M,,*5C
$GPRMC,170027.212,A,3250.761699,N,03505.459464,E,64.9,28.2,140509,,,A*69
$GPGSA,A,3,21,26,08,29,27,10,02,06,24,09,,,1.32,0.78,1.07*00
$GPGSV,3,1,12,29,68,282,46,10,63,046,46,26,56,260,50,02,37,161,44*75
$GPGSV,3,2,12,08,35,057,49,47,32,125,46,24,20,152,47,06,16,274,42*7B
$GPGSV,3,3,12,27,13,039,41,21,09,319,46,09,06,197,34,04,03,149,17*7B
$GPGGA,170028.213,3250.777589,N,03505.469620,E,1,10,0.78,3.0,M,0.0,M,,*56
$GPRMC,170028.213,A,3250.777589,N,03505.469620,E,64.9,28.2,140509,,,A*63
$GPGGA,170029.215,3250.793479,N,03505.479777,E,1,10,0.78,3.0,M,0.0,M,,*57
$GPRMC,170029.215,A,3250.793479,N,03505.479777,E,64.9,28.2,140509,,,A*62
$GPGGA,170030.216,3250.809369,N,03505.489933,E,1,10,0.78,3.0,M,0.0,M,,*57
$GPRMC,170030.216,A,3250.809369,N,03505.489933,E,64.9,28.2,140509,,,A*62
$GPGSA,A,3,21,26,08,29,27,10,02,06,24,09,,,1.32,0.78,1.07*00
$GPGSV,3,1,12,29,68,282,46,10,63,046,46,26,56,260,50,02,37,161,44*75
$GPGSV,3,2,12,08,35,057,49,47,32,125,46,24,20,152,47,06,16,274,42*7B
$GPGSV,3,3,12,27,13,039,41,21,09,319,46,09,06,197,34,04,03,149,17*7B
$GPGGA,170031.218,3250.825259,N,03505.500090,E,1,10,0.78,3.0,M,0.0,M,,*54
$GPRMC,170031.218,A,3250.825259,N,03505.500090,E,64.9,28.2,140509,,,A*61
$GPGGA,170032.219,3250.841149,N,03505.510247,E,1,10,0.78,3.0,M,0.0,M,,*5F
$GPRMC,170032.219,A,3250.841149,N,03505.510247,E,64.9,28.2,140509,,,A*6A
$GPGGA,170033.231,3250.857040,N,03505.520404,E,1,10,0.78,3.0,M,0.0,M,,*59
$GPRMC,170033.231,A,3250.857040,N,03505.520404,E,64.9,28.2,140509,,,A*6C
$GPGSA,A,3,21,26,08,29,27,10,02,06,24,09,,,1.32,0.78,1.07*00
$GPGSV,3,1,12,29,68,282,46,10,63,046,46,26,56,260,50,02,37,161,44*75
$GPGSV,3,2,12,08,35,057,49,47,32,125,46,24,20,152,47,06,16,274,42*7B
$GPGSV,3,3,12,27,13,039,41,21,09,319,46,09,06,197,34,04,03,149,17*7B
$GPGGA,170034.222,3250.872930,N,03505.530560,E,1,10,0.78,3.0,M,0.0,M,,*57
$GPRMC,170034.222,A,3250.872930,N,03505.530560,E,64.9,28.2,140509,,,A*62
$GPGGA,170035.224,3250.888820,N,03505.540717,E,1,10,0.78,3.0,M,0.0,M,,*50
$GPRMC,170035.224,A,3250.888820,N,03505.540717,E,64.9,28.2,140509,,,A*65
$GPGGA,170036.225,3250.904710,N,03505.550874,E,1,10,0.78,3.0,M,0.0,M,,*50
$GPRMC,170036.225,A,3250.904710,N,03505.550874,E,64.9,28.2,140509,,,A*65
$GPGSA,A,3,21,26,08,29,27,10,02,06,24,09,,,1.32,0.78,1.07*00
$GPGSV,3,1,12,29,68,282,46,10,63,046,46,26,56,260,50,02,37,161,44*75
$GPGSV,3,2,12,08,35,057,49,47,32,125,46,24,20,152,47,06,16,274,42*7B
$GPGSV,3,3,12,27,13,039,41,21,09,319,46,09,06,197,34,04,03,149,17*7B
$GPGGA,170037.226,3250.920600,N,03505.561031,E,1,10,0.78,3.0,M,0.0,M,,*5F
$GPRMC,170037.226,A,3250.920600,N,03505.561031,E,64.9,28.2,140509,,,A*6A
$GPGGA,170038.228,3250.936490,N,03505.571188,E,1,10,0.78,3.0,M,0.0,M,,*50
$GPRMC,170038.228,A,3250.936490,N,03505.571188,E,64.9,28.2,140509,,,A*65
$GPGGA,170039.229,3250.952380,N,03505.581346,E,1,10,0.78,3.0,M,0.0,M,,*5B
$GPRMC,170039.229,A,3250.952380,N,03505.581346,E,64.9,28.2,140509,,,A*6E
$GPGSA,A,3,21,26,08,29,27,10,02,06,24,09,,,1.32,0.78,1.07*00
$GPGSV,3,1,12,29,68,282,46,10,63,046,46,26,56,260,50,02,37,161,44*75
$GPGSV,3,2,12,08,35,057,49,47,32,125,46,24,20,152,47,06,16,274,42*7B
$GPGSV,3,3,12,27,13,039,41,21,09,319,46,09,06,197,34,04,03,149,17*7B
$GPGGA,170040.231,3250.968270,N,03505.591503,E,1,10,0.78,3.0,M,0.0,M,,*5D
$GPRMC,170040.231,A,3250.968270,N,03505.591503,E,64.9,28.2,140509,,,A*68
$GPGGA,170041.232,3250.984160,N,03505.601660,E,1,10,0.78,3.0,M,0.0,M,,*53
$GPRMC,170041.232,A,3250.984160,N,03505.601660,E,-1.0,28.2,140509,,,A*71
$GPGGA,170042.234,3250.968270,N,03505.591503,E,1,10,0.78,3.0,M,0.0,M,,*5A
$GPRMC,170042.234,A,3250.968270,N,03505.591503,E,64.9,208.2,140509,,,A*5F
$GPGSA,A,3,21,26,08,29,27,10,02,06,24,09,,,1.32,0.78,1.07*00
$GPGSV,3,1,12,29,68,282,46,10,63,046,46,26,56,260,50,02,37,161,44*75
$GPGSV,3,2,12,08,35,057,49,47,32,125,46,24,20,152,47,06,16,274,42*7B
$GPGSV,3,3,12,27,13,039,41,21,09,319,46,09,06,197,34,04,03,149,17*7B
