=~=~=~=~=~=~=~=~=~=~=~= PuTTY log 2009.05.16 10:54:52 =~=~=~=~=~=~=~=~=~=~=~=
$GPGGA,075449.080,3249.454460,N,03504.760340,E,1,10,0.78,3.0,M,0.0,M,,*5D
$GPRMC,075449.080,A,3249.454460,N,03504.760340,E,64.9,221.4,160509,,,A*57
$GPGSA,A,3,21,26,08,29,27,10,02,06,24,09,,,1.32,0.78,1.07*00
$GPGSV,3,1,12,29,68,282,46,10,63,046,46,26,56,260,50,02,37,161,44*75
$GPGSV,3,2,12,08,35,057,49,47,32,125,46,24,20,152,47,06,16,274,42*7B
$GPGSV,3,3,12,27,13,039,41,21,09,319,46,09,06,197,34,04,03,149,17*7B
$GPGGA,075450.082,3249.440944,N,03504.746137,E,1,10,0.78,3.0,M,0.0,M,,*5F
$GPRMC,075450.082,A,3249.440944,N,03504.746137,E,64.9,221.4,160509,,,A*55
$GPGGA,075451.083,3249.427429,N,03504.731935,E,1,10,0.78,3.0,M,0.0,M,,*52
$GPRMC,075451.083,A,3249.427429,N,03504.731935,E,64.9,221.4,160509,,,A*58
$GPGGA,075452.085,3249.413913,N,03504.717732,E,1,10,0.78,3.0,M,0.0,M,,*59
$GPRMC,075452.085,A,3249.413913,N,03504.717732,E,64.9,221.4,160509,,,A*53
$GPGSA,A,3,21,26,08,29,27,10,02,06,24,09,,,1.32,0.78,1.07*00
$GPGSV,3,1,12,29,68,282,46,10,63,046,46,26,56,260,50,02,37,161,44*75
$GPGSV,3,2,12,08,35,057,49,47,32,125,46,24,20,152,47,06,16,274,42*7B
$GPGSV,3,3,12,27,13,039,41,21,09,319,46,09,06,197,34,04,03,149,17*7B
$GPGGA,075453.086,3249.400397,N,03504.703530,E,1,10,0.78,3.0,M,0.0,M,,*5A
$GPRMC,075453.086,A,3249.400397,N,03504.703530,E,64.9,221.4,160509,,,A*50
$GPGGA,075454.088,3249.386881,N,03504.689327,E,1,10,0.78,3.0,M,0.0,M,,*55
$GPRMC,075454.088,A,3249.386881,N,03504.689327,E,64.9,221.4,160509,,,A*5F
$GPGGA,075455.089,3249.373366,N,03504.675125,E,1,10,0.78,3.0,M,0.0,M,,*5E
$GPRMC,075455.089,A,3249.373366,N,03504.675125,E,64.9,221.4,160509,,,A*54
$GPGSA,A,3,21,26,08,29,27,10,02,06,24,09,,,1.32,0.78,1.07*00
$GPGSV,3,1,12,29,68,282,46,10,63,046,46,26,56,260,50,02,37,161,44*75
$GPGSV,3,2,12,08,35,057,49,47,32,125,46,24,20,152,47,06,16,274,42*7B
$GPGSV,3,3,12,27,13,039,41,21,09,319,46,09,06,197,34,04,03,149,17*7B
$GPGGA,075456.090,3249.359850,N,03504.660923,E,1,10,0.78,3.0,M,0.0,M,,*59
$GPRMC,075456.090,A,3249.359850,N,03504.660923,E,64.9,221.4,160509,,,A*53
$GPGGA,075457.102,3249.346334,N,03504.646720,E,1,10,0.78,3.0,M,0.0,M,,*5C
$GPRMC,075457.102,A,3249.346334,N,03504.646720,E,64.9,221.4,160509,,,A*56
$GPGGA,075458.093,3249.332818,N,03504.632518,E,1,10,0.78,3.0,M,0.0,M,,*56
$GPRMC,075458.093,A,3249.332818,N,03504.632518,E,64.9,221.4,160509,,,A*5C
$GPGSA,A,3,21,26,08,29,27,10,02,06,24,09,,,1.32,0.78,1.07*00
$GPGSV,3,1,12,29,68,282,46,10,63,046,46,26,56,260,50,02,37,161,44*75
$GPGSV,3,2,12,08,35,057,49,47,32,125,46,24,20,152,47,06,16,274,42*7B
$GPGSV,3,3,12,27,13,039,41,21,09,319,46,09,06,197,34,04,03,149,17*7B
$GPGGA,075459.095,3249.319302,N,03504.618316,E,1,10,0.78,3.0,M,0.0,M,,*58
$GPRMC,075459.095,A,3249.319302,N,03504.618316,E,64.9,221.4,160509,,,A*52
$GPGGA,075500.096,3249.305786,N,03504.604114,E,1,10,0.78,3.0,M,0.0,M,,*5E
$GPRMC,075500.096,A,3249.305786,N,03504.604114,E,64.9,221.4,160509,,,A*54
$GPGGA,075501.098,3249.292270,N,03504.589912,E,1,10,0.78,3.0,M,0.0,M,,*5A
$GPRMC,075501.098,A,3249.292270,N,03504.589912,E,64.9,221.4,160509,,,A*50
$GPGSA,A,3,21,26,08,29,27,10,02,06,24,09,,,1.32,0.78,1.07*00
$GPGSV,3,1,12,29,68,282,46,10,63,046,46,26,56,260,50,02,37,161,44*75
$GPGSV,3,2,12,08,35,057,49,47,32,125,46,24,20,152,47,06,16,274,42*7B
$GPGSV,3,3,12,27,13,039,41,21,09,319,46,09,06,197,34,04,03,149,17*7B
$GPGGA,075502.099,3249.278754,N,03504.575710,E,1,10,0.78,3.0,M,0.0,M,,*50
$GPRMC,075502.099,A,3249.278754,N,03504.575710,E,64.9,221.4,160509,,,A*5A
$GPGGA,075503.110,3249.265238,N,03504.561509,E,1,10,0.78,3.0,M,0.0,M,,*5D
$GPRMC,075503.110,A,3249.265238,N,03504.561509,E,64.9,221.4,160509,,,A*57
$GPGGA,075504.102,3249.251722,N,03504.547307,E,1,10,0.78,3.0,M,0.0,M,,*5C
$GPRMC,075504.102,A,3249.251722,N,03504.547307,E,64.9,221.4,160509,,,A*56
$GPGSA,A,3,21,26,08,29,27,10,02,06,24,09,,,1.32,0.78,1.07*00
$GPGSV,3,1,12,29,68,282,46,10,63,046,46,26,56,260,50,02,37,161,44*75
$GPGSV,3,2,12,08,35,057,49,47,32,125,46,24,20,152,47,06,16,274,42*7B
$GPGSV,3,3,12,27,13,039,41,21,09,319,46,09,06,197,34,04,03,149,17*7B
$GPGGA,075505.103,3249.238206,N,03504.533105,E,1,10,0.78,3.0,M,0.0,M,,*53
$GPRMC,075505.103,A,3249.238206,N,03504.533105,E,64.9,221.4,160509,,,A*59
$GPGGA,075506.105,3249.224690,N,03504.518904,E,1,10,0.78,3.0,M,0.0,M,,*50
$GPRMC,075506.105,A,3249.224690,N,03504.518904,E,64.9,221.4,160509,,,A*5A
$GPGGA,075507.106,3249.211174,N,03504.504702,E,1,10,0.78,3.0,M,0.0,M,,*5C
$GPRMC,075507.106,A,3249.211174,N,03504.504702,E,64.9,221.4,160509,,,A*56
$GPGSA,A,3,21,26,08,29,27,10,02,06,24,09,,,1.32,0.78,1.07*00
$GPGSV,3,1,12,29,68,282,46,10,63,046,46,26,56,260,50,02,37,161,44*75
$GPGSV,3,2,12,08,35,057,49,47,32,125,46,24,20,152,47,06,16,274,42*7B
$GPGSV,3,3,12,27,13,039,41,21,09,319,46,09,06,197,34,04,03,149,17*7B
$GPGGA,075508.108,3249.197658,N,03504.490501,E,1,10,0.78,3.0,M,0.0,M,,*54
$GPRMC,075508.108,A,3249.197658,N,03504.490501,E,64.9,221.4,160509,,,A*5E
$GPGGA,075509.109,3249.184142,N,03504.476299,E,1,10,0.78,3.0,M,0.0,M,,*54
$GPRMC,075509.109,A,3249.184142,N,03504.476299,E,64.9,221.4,160509,,,A*5E
$GPGGA,075510.111,3249.170626,N,03504.462098,E,1,10,0.78,3.0,M,0.0,M,,*5D
$GPRMC,075510.111,A,3249.170626,N,03504.462098,E,64.9,221.4,160509,,,A*57
$GPGSA,A,3,21,26,08,29,27,10,02,06,24,09,,,1.32,0.78,1.07*00
$GPGSV,3,1,12,29,68,282,46,10,63,046,46,26,56,260,50,02,37,161,44*75
$GPGSV,3,2,12,08,35,057,49,47,32,125,46,24,20,152,47,06,16,274,42*7B
$GPGSV,3,3,12,27,13,039,41,21,09,319,46,09,06,197,34,04,03,149,17*7B
$GPGGA,075511.112,3249.157109,N,03504.447897,E,1,10,0.78,3.0,M,0.0,M,,*50
$GPRMC,075511.112,A,3249.157109,N,03504.447897,E,64.9,221.4,160509,,,A*5A
$GPGGA,075512.123,3249.143593,N,03504.433696,E,1,10,0.78,3.0,M,0.0,M,,*5F
$GPRMC,075512.123,A,3249.143593,N,03504.433696,E,64.9,221.4,160509,,,A*55
$GPGGA,075513.115,3249.130077,N,03504.419495,E,1,10,0.78,3.0,M,0.0,M,,*59
$GPRMC,075513.115,A,3249.130077,N,03504.419495,E,64.9,221.4,160509,,,A*53
$GPGSA,A,3,21,26,08,29,27,10,02,06,24,09,,,1.32,0.78,1.07*00
$GPGSV,3,1,12,29,68,282,46,10,63,046,46,26,56,260,50,02,37,161,44*75
$GPGSV,3,2,12,08,35,057,49,47,32,125,46,24,20,152,47,06,16,274,42*7B
$GPGSV,3,3,12,27,13,039,41,21,09,319,46,09,06,197,34,04,03,149,17*7B
$GPGGA,075514.116,3249.116561,N,03504.405294,E,1,10,0.78,3.0,M,0.0,M,,*51
$GPRMC,075514.116,A,3249.116561,N,03504.405294,E,64.9,221.4,160509,,,A*5B
$GPGGA,075515.118,3249.103044,N,03504.391093,E,1,10,0.78,3.0,M,0.0,M,,*57
$GPRMC,075515.118,A,3249.103044,N,03504.391093,E,64.9,221.4,160509,,,A*5D
$GPGGA,075516.115,3249.089528,N,03504.376892,E,1,10,0.78,3.0,M,0.0,M,,*55
$GPRMC,075516.115,A,3249.089528,N,03504.376892,E,64.9,221.4,160509,,,A*5F
$GPGSA,A,3,21,26,08,29,27,10,02,06,24,09,,,1.32,0.78,1.07*00
$GPGSV,3,1,12,29,68,282,46,10,63,046,46,26,56,260,50,02,37,161,44*75
$GPGSV,3,2,12,08,35,057,49,47,32,125,46,24,20,152,47,06,16,274,42*7B
$GPGSV,3,3,12,27,13,039,41,21,09,319,46,09,06,197,34,04,03,149,17*7B
$GPGGA,075517.116,3249.076011,N,03504.362691,E,1,10,0.78,3.0,M,0.0,M,,*50
$GPRMC,075517.116,A,3249.076011,N,03504.362691,E,64.9,221.4,160509,,,A*5A
$GPGGA,075518.118,3249.062495,N,03504.348491,E,1,10,0.78,3.0,M,0.0,M,,*56
$GPRMC,075518.118,A,3249.062495,N,03504.348491,E,64.9,221.4,160509,,,A*5C
$GPGGA,075519.119,3249.048979,N,03504.334290,E,1,10,0.78,3.0,M,0.0,M,,*5D
$GPRMC,075519.119,A,3249.048979,N,03504.334290,E,64.9,221.4,160509,,,A*57
$GPGSA,A,3,21,26,08,29,27,10,02,06,24,09,,,1.32,0.78,1.07*00
$GPGSV,3,1,12,29,68,282,46,10,63,046,46,26,56,260,50,02,37,161,44*75
$GPGSV,3,2,12,08,35,057,49,47,32,125,46,24,20,152,47,06,16,274,42*7B
$GPGSV,3,3,12,27,13,039,41,21,09,319,46,09,06,197,34,04,03,149,17*7B
$GPGGA,075520.121,3249.035462,N,03504.320089,E,1,10,0.78,3.0,M,0.0,M,,*5E
$GPRMC,075520.121,A,3249.035462,N,03504.320089,E,64.9,221.4,160509,,,A*54
$GPGGA,075521.122,3249.021946,N,03504.305889,E,1,10,0.78,3.0,M,0.0,M,,*5D
$GPRMC,075521.122,A,3249.021946,N,03504.305889,E,64.9,221.4,160509,,,A*57
$GPGGA,075522.124,3249.008429,N,03504.291689,E,1,10,0.78,3.0,M,0.0,M,,*55
$GPRMC,075522.124,A,3249.008429,N,03504.291689,E,64.9,221.4,160509,,,A*5F
$GPGSA,A,3,21,26,08,29,27,10,02,06,24,09,,,1.32,0.78,1.07*00
$GPGSV,3,1,12,29,68,282,46,10,63,046,46,26,56,260,50,02,37,161,44*75
$GPGSV,3,2,12,08,35,057,49,47,32,125,46,24,20,152,47,06,16,274,42*7B
$GPGSV,3,3,12,27,13,039,41,21,09,319,46,09,06,197,34,04,03,149,17*7B
$GPGGA,075523.125,3248.994913,N,03504.277488,E,1,10,0.78,3.0,M,0.0,M,,*57
$GPRMC,075523.125,A,3248.994913,N,03504.277488,E,64.9,221.4,160509,,,A*5D
$GPGGA,075524.126,3248.981396,N,03504.263288,E,1,10,0.78,3.0,M,0.0,M,,*53
$GPRMC,075524.126,A,3248.981396,N,03504.263288,E,64.9,221.4,160509,,,A*59
$GPGGA,075525.128,3248.967879,N,03504.249088,E,1,10,0.78,3.0,M,0.0,M,,*54
$GPRMC,075525.128,A,3248.967879,N,03504.249088,E,64.9,221.4,160509,,,A*5E
$GPGSA,A,3,21,26,08,29,27,10,02,06,24,09,,,1.32,0.78,1.07*00
$GPGSV,3,1,12,29,68,282,46,10,63,046,46,26,56,260,50,02,37,161,44*75
$GPGSV,3,2,12,08,35,057,49,47,32,125,46,24,20,152,47,06,16,274,42*7B
$GPGSV,3,3,12,27,13,039,41,21,09,319,46,09,06,197,34,04,03,149,17*7B
$GPGGA,075526.129,3248.954363,N,03504.234888,E,1,10,0.78,3.0,M,0.0,M,,*54
$GPRMC,075526.129,A,3248.954363,N,03504.234888,E,64.9,221.4,160509,,,A*5E
$GPGGA,075527.131,3248.940846,N,03504.220688,E,1,10,0.78,3.0,M,0.0,M,,*5E
$GPRMC,075527.131,A,3248.940846,N,03504.220688,E,64.9,221.4,160509,,,A*54
$GPGGA,075528.132,3248.927329,N,03504.206488,E,1,10,0.78,3.0,M,0.0,M,,*57
$GPRMC,075528.132,A,3248.927329,N,03504.206488,E,64.9,221.4,160509,,,A*5D
$GPGSA,A,3,21,26,08,29,27,10,02,06,24,09,,,1.32,0.78,1.07*00
$GPGSV,3,1,12,29,68,282,46,10,63,046,46,26,56,260,50,02,37,161,44*75
$GPGSV,3,2,12,08,35,057,49,47,32,125,46,24,20,152,47,06,16,274,42*7B
$GPGSV,3,3,12,27,13,039,41,21,09,319,46,09,06,197,34,04,03,149,17*7B
$GPGGA,075529.134,3248.913813,N,03504.192288,E,1,10,0.78,3.0,M,0.0,M,,*5D
$GPRMC,075529.134,A,3248.913813,N,03504.192288,E,64.9,221.4,160509,,,A*57
$GPGGA,075530.135,3248.900296,N,03504.178088,E,1,10,0.78,3.0,M,0.0,M,,*57
$GPRMC,075530.135,A,3248.900296,N,03504.178088,E,64.9,221.4,160509,,,A*5D
$GPGGA,075531.136,3248.886779,N,03504.163888,E,1,10,0.78,3.0,M,0.0,M,,*5C
$GPRMC,075531.136,A,3248.886779,N,03504.163888,E,64.9,221.4,160509,,,A*56
$GPGSA,A,3,21,26,08,29,27,10,02,06,24,09,,,1.32,0.78,1.07*00
$GPGSV,3,1,12,29,68,282,46,10,63,046,46,26,56,260,50,02,37,161,44*75
$GPGSV,3,2,12,08,35,057,49,47,32,125,46,24,20,152,47,06,16,274,42*7B
$GPGSV,3,3,12,27,13,039,41,21,09,319,46,09,06,197,34,04,03,149,17*7B
$GPGGA,075532.138,3248.873263,N,03504.149688,E,1,10,0.78,3.0,M,0.0,M,,*53
$GPRMC,075532.138,A,3248.873263,N,03504.149688,E,64.9,221.4,160509,,,A*59
$GPGGA,075533.139,3248.859746,N,03504.135489,E,1,10,0.78,3.0,M,0.0,M,,*51
$GPRMC,075533.139,A,3248.859746,N,03504.135489,E,64.9,221.4,160509,,,A*5B
$GPGGA,075534.141,3248.846229,N,03504.121289,E,1,10,0.78,3.0,M,0.0,M,,*58
$GPRMC,075534.141,A,3248.846229,N,03504.121289,E,64.9,221.4,160509,,,A*52
$GPGSA,A,3,21,26,08,29,27,10,02,06,24,09,,,1.32,0.78,1.07*00
$GPGSV,3,1,12,29,68,282,46,10,63,046,46,26,56,260,50,02,37,161,44*75
$GPGSV,3,2,12,08,35,057,49,47,32,125,46,24,20,152,47,06,16,274,42*7B
$GPGSV,3,3,12,27,13,039,41,21,09,319,46,09,06,197,34,04,03,149,17*7B
$GPGGA,075535.152,3248.832712,N,03504.107090,E,1,10,0.78,3.0,M,0.0,M,,*5B
$GPRMC,075535.152,A,3248.832712,N,03504.107090,E,64.9,221.4,160509,,,A*51
$GPGGA,075536.144,3248.819195,N,03504.092890,E,1,10,0.78,3.0,M,0.0,M,,*5A
$GPRMC,075536.144,A,3248.819195,N,03504.092890,E,64.9,221.4,160509,,,A*50
$GPGGA,075537.145,3248.805678,N,03504.078691,E,1,10,0.78,3.0,M,0.0,M,,*58
$GPRMC,075537.145,A,3248.805678,N,03504.078691,E,64.9,221.4,160509,,,A*52
$GPGSA,A,3,21,26,08,29,27,10,02,06,24,09,,,1.32,0.78,1.07*00
$GPGSV,3,1,12,29,68,282,46,10,63,046,46,26,56,260,50,02,37,161,44*75
$GPGSV,3,2,12,08,35,057,49,47,32,125,46,24,20,152,47,06,16,274,42*7B
$GPGSV,3,3,12,27,13,039,41,21,09,319,46,09,06,197,34,04,03,149,17*7B
$GPGGA,075538.147,3248.792161,N,03504.064492,E,1,10,0.78,3.0,M,0.0,M,,*57
$GPRMC,075538.147,A,3248.792161,N,03504.064492,E,64.9,221.4,160509,,,A*5D
$GPGGA,075539.148,3248.778644,N,03504.050293,E,1,10,0.78,3.0,M,0.0,M,,*5D
$GPRMC,075539.148,A,3248.778644,N,03504.050293,E,64.9,221.4,160509,,,A*57
$GPGGA,075540.149,3248.765127,N,03504.036094,E,1,10,0.78,3.0,M,0.0,M,,*59
$GPRMC,075540.149,A,3248.765127,N,03504.036094,E,64.9,221.4,160509,,,A*53
$GPGSA,A,3,21,26,08,29,27,10,02,06,24,09,,,1.32,0.78,1.07*00
$GPGSV,3,1,12,29,68,282,46,10,63,046,46,26,56,260,50,02,37,161,44*75
$GPGSV,3,2,12,08,35,057,49,47,32,125,46,24,20,152,47,06,16,274,42*7B
$GPGSV,3,3,12,27,13,039,41,21,09,319,46,09,06,197,34,04,03,149,17*7B
$GPGGA,075541.151,3248.751610,N,03504.021895,E,1,10,0.78,3.0,M,0.0,M,,*5A
$GPRMC,075541.151,A,3248.751610,N,03504.021895,E,64.9,221.4,160509,,,A*50
$GPGGA,075542.152,3248.738093,N,03504.007696,E,1,10,0.78,3.0,M,0.0,M,,*51
$GPRMC,075542.152,A,3248.738093,N,03504.007696,E,64.9,221.4,160509,,,A*5B
$GPGGA,075543.154,3248.724576,N,03503.993497,E,1,10,0.78,3.0,M,0.0,M,,*55
$GPRMC,075543.154,A,3248.724576,N,03503.993497,E,64.9,221.4,160509,,,A*5F
$GPGSA,A,3,21,26,08,29,27,10,02,06,24,09,,,1.32,0.78,1.07*00
$GPGSV,3,1,12,29,68,282,46,10,63,046,46,26,56,260,50,02,37,161,44*75
$GPGSV,3,2,12,08,35,057,49,47,32,125,46,24,20,152,47,06,16,274,42*7B
$GPGSV,3,3,12,27,13,039,41,21,09,319,46,09,06,197,34,04,03,149,17*7B
$GPGGA,075544.155,3248.711059,N,03503.979298,E,1,10,0.78,3.0,M,0.0,M,,*50
$GPRMC,075544.155,A,3248.711059,N,03503.979298,E,64.9,221.4,160509,,,A*5A
$GPGGA,075545.157,3248.697542,N,03503.965099,E,1,10,0.78,3.0,M,0.0,M,,*5D
$GPRMC,075545.157,A,3248.697542,N,03503.965099,E,64.9,221.4,160509,,,A*57
$GPGGA,075546.168,3248.684025,N,03503.950900,E,1,10,0.78,3.0,M,0.0,M,,*5B
$GPRMC,075546.168,A,3248.684025,N,03503.950900,E,64.9,221.4,160509,,,A*51
$GPGSA,A,3,21,26,08,29,27,10,02,06,24,09,,,1.32,0.78,1.07*00
$GPGSV,3,1,12,29,68,282,46,10,63,046,46,26,56,260,50,02,37,161,44*75
$GPGSV,3,2,12,08,35,057,49,47,32,125,46,24,20,152,47,06,16,274,42*7B
$GPGSV,3,3,12,27,13,039,41,21,09,319,46,09,06,197,34,04,03,149,17*7B
$GPGGA,075547.160,3248.670508,N,03503.936702,E,1,10,0.78,3.0,M,0.0,M,,*5F
$GPRMC,075547.160,A,3248.670508,N,03503.936702,E,64.9,221.4,160509,,,A*55
$GPGGA,075548.161,3248.656990,N,03503.922503,E,1,10,0.78,3.0,M,0.0,M,,*5E
$GPRMC,075548.161,A,3248.656990,N,03503.922503,E,64.9,221.4,160509,,,A*54
$GPGGA,075549.162,3248.643473,N,03503.908305,E,1,10,0.78,3.0,M,0.0,M,,*50
$GPRMC,075549.162,A,3248.643473,N,03503.908305,E,64.9,221.4,160509,,,A*5A
$GPGSA,A,3,21,26,08,29,27,10,02,06,24,09,,,1.32,0.78,1.07*00
$GPGSV,3,1,12,29,68,282,46,10,63,046,46,26,56,260,50,02,37,161,44*75
$GPGSV,3,2,12,08,35,057,49,47,32,125,46,24,20,152,47,06,16,274,42*7B
$GPGSV,3,3,12,27,13,039,41,21,09,319,46,09,06,197,34,04,03,149,17*7B
$GPGGA,075550.164,3248.629956,N,03503.894106,E,1,10,0.78,3.0,M,0.0,M,,*5D
$GPRMC,075550.164,A,3248.629956,N,03503.894106,E,64.9,221.4,160509,,,A*57
$GPGGA,075551.175,3248.616439,N,03503.879908,E,1,10,0.78,3.0,M,0.0,M,,*51
$GPRMC,075551.175,A,3248.616439,N,03503.879908,E,64.9,221.4,160509,,,A*5B
$GPGGA,075552.167,3248.602921,N,03503.865710,E,1,10,0.78,3.0,M,0.0,M,,*5A
$GPRMC,075552.167,A,3248.602921,N,03503.865710,E,64.9,221.4,160509,,,A*50
$GPGSA,A,3,21,26,08,29,27,10,02,06,24,09,,,1.32,0.78,1.07*00
$GPGSV,3,1,12,29,68,282,46,10,63,046,46,26,56,260,50,02,37,161,44*75
$GPGSV,3,2,12,08,35,057,49,47,32,125,46,24,20,152,47,06,16,274,42*7B
$GPGSV,3,3,12,27,13,039,41,21,09,319,46,09,06,197,34,04,03,149,17*7B
$GPGGA,075553.168,3248.589404,N,03503.851512,E,1,10,0.78,3.0,M,0.0,M,,*59
$GPRMC,075553.168,A,3248.589404,N,03503.851512,E,64.9,221.4,160509,,,A*53
$GPGGA,075554.170,3248.575887,N,03503.837314,E,1,10,0.78,3.0,M,0.0,M,,*53
$GPRMC,075554.170,A,3248.575887,N,03503.837314,E,64.9,221.4,160509,,,A*59
$GPGGA,075555.181,3248.562369,N,03503.823116,E,1,10,0.78,3.0,M,0.0,M,,*54
$GPRMC,075555.181,A,3248.562369,N,03503.823116,E,64.9,221.4,160509,,,A*5E
$GPGSA,A,3,21,26,08,29,27,10,02,06,24,09,,,1.32,0.78,1.07*00
$GPGSV,3,1,12,29,68,282,46,10,63,046,46,26,56,260,50,02,37,161,44*75
$GPGSV,3,2,12,08,35,057,49,47,32,125,46,24,20,152,47,06,16,274,42*7B
$GPGSV,3,3,12,27,13,039,41,21,09,319,46,09,06,197,34,04,03,149,17*7B
$GPGGA,075556.172,3248.548852,N,03503.808918,E,1,10,0.78,3.0,M,0.0,M,,*5F
$GPRMC,075556.172,A,3248.548852,N,03503.808918,E,64.9,221.4,160509,,,A*55
$GPGGA,075557.174,3248.535334,N,03503.794720,E,1,10,0.78,3.0,M,0.0,M,,*56
$GPRMC,075557.174,A,3248.535334,N,03503.794720,E,64.9,221.4,160509,,,A*5C
$GPGGA,075558.185,3248.521817,N,03503.780522,E,1,10,0.78,3.0,M,0.0,M,,*5D
$GPRMC,075558.185,A,3248.521817,N,03503.780522,E,64.9,221.4,160509,,,A*57
$GPGSA,A,3,21,26,08,29,27,10,02,06,24,09,,,1.32,0.78,1.07*00
$GPGSV,3,1,12,29,68,282,46,10,63,046,46,26,56,260,50,02,37,161,44*75
$GPGSV,3,2,12,08,35,057,49,47,32,125,46,24,20,152,47,06,16,274,42*7B
$GPGSV,3,3,12,27,13,039,41,21,09,319,46,09,06,197,34,04,03,149,17*7B
$GPGGA,075559.177,3248.508299,N,03503.766324,E,1,10,0.78,3.0,M,0.0,M,,*5E
$GPRMC,075559.177,A,3248.508299,N,03503.766324,E,64.9,221.4,160509,,,A*54
$GPGGA,075600.188,3248.494782,N,03503.752126,E,1,10,0.78,3.0,M,0.0,M,,*5D
$GPRMC,075600.188,A,3248.494782,N,03503.752126,E,64.9,221.4,160509,,,A*57
$GPGGA,075601.180,3248.481264,N,03503.737929,E,1,10,0.78,3.0,M,0.0,M,,*59
$GPRMC,075601.180,A,3248.481264,N,03503.737929,E,64.9,221.4,160509,,,A*53
$GPGSA,A,3,21,26,08,29,27,10,02,06,24,09,,,1.32,0.78,1.07*00
$GPGSV,3,1,12,29,68,282,46,10,63,046,46,26,56,260,50,02,37,161,44*75
$GPGSV,3,2,12,08,35,057,49,47,32,125,46,24,20,152,47,06,16,274,42*7B
$GPGSV,3,3,12,27,13,039,41,21,09,319,46,09,06,197,34,04,03,149,17*7B
$GPGGA,075602.181,3248.467747,N,03503.723731,E,1,10,0.78,3.0,M,0.0,M,,*55
$GPRMC,075602.181,A,3248.467747,N,03503.723731,E,64.9,221.4,160509,,,A*5F
$GPGGA,075603.183,3248.454229,N,03503.709534,E,1,10,0.78,3.0,M,0.0,M,,*54
$GPRMC,075603.183,A,3248.454229,N,03503.709534,E,64.9,221.4,160509,,,A*5E
$GPGGA,075604.184,3248.440711,N,03503.695336,E,1,10,0.78,3.0,M,0.0,M,,*5F
$GPRMC,075604.184,A,3248.440711,N,03503.695336,E,64.9,221.4,160509,,,A*55
$GPGSA,A,3,21,26,08,29,27,10,02,06,24,09,,,1.32,0.78,1.07*00
$GPGSV,3,1,12,29,68,282,46,10,63,046,46,26,56,260,50,02,37,161,44*75
$GPGSV,3,2,12,08,35,057,49,47,32,125,46,24,20,152,47,06,16,274,42*7B
$GPGSV,3,3,12,27,13,039,41,21,09,319,46,09,06,197,34,04,03,149,17*7B
$GPGGA,075605.185,3248.427194,N,03503.681139,E,1,10,0.78,3.0,M,0.0,M,,*5D
$GPRMC,075605.185,A,3248.427194,N,03503.681139,E,64.9,221.4,160509,,,A*57
$GPGGA,075606.187,3248.413676,N,03503.666942,E,1,10,0.78,3.0,M,0.0,M,,*5D
$GPRMC,075606.187,A,3248.413676,N,03503.666942,E,64.9,221.4,160509,,,A*57
$GPGGA,075607.188,3248.400158,N,03503.652745,E,1,10,0.78,3.0,M,0.0,M,,*54
$GPRMC,075607.188,A,3248.400158,N,03503.652745,E,64.9,221.4,160509,,,A*5E
$GPGSA,A,3,21,26,08,29,27,10,02,06,24,09,,,1.32,0.78,1.07*00
$GPGSV,3,1,12,29,68,282,46,10,63,046,46,26,56,260,50,02,37,161,44*75
$GPGSV,3,2,12,08,35,057,49,47,32,125,46,24,20,152,47,06,16,274,42*7B
$GPGSV,3,3,12,27,13,039,41,21,09,319,46,09,06,197,34,04,03,149,17*7B
$GPGGA,075608.190,3248.386641,N,03503.638548,E,1,10,0.78,3.0,M,0.0,M,,*57
$GPRMC,075608.190,A,3248.386641,N,03503.638548,E,64.9,221.4,160509,,,A*5D
$GPGGA,075609.191,3248.373123,N,03503.624351,E,1,10,0.78,3.0,M,0.0,M,,*5D
$GPRMC,075609.191,A,3248.373123,N,03503.624351,E,64.9,221.4,160509,,,A*57
$GPGGA,075610.203,3248.359605,N,03503.610154,E,1,10,0.78,3.0,M,0.0,M,,*56
$GPRMC,075610.203,A,3248.359605,N,03503.610154,E,64.9,221.4,160509,,,A*5C
$GPGSA,A,3,21,26,08,29,27,10,02,06,24,09,,,1.32,0.78,1.07*00
$GPGSV,3,1,12,29,68,282,46,10,63,046,46,26,56,260,50,02,37,161,44*75
$GPGSV,3,2,12,08,35,057,49,47,32,125,46,24,20,152,47,06,16,274,42*7B
$GPGSV,3,3,12,27,13,039,41,21,09,319,46,09,06,197,34,04,03,149,17*7B
$GPGGA,075611.204,3248.346087,N,03503.595957,E,1,10,0.78,3.0,M,0.0,M,,*57
$GPRMC,075611.204,A,3248.346087,N,03503.595957,E,64.9,221.4,160509,,,A*5D
$GPGGA,075612.196,3248.332569,N,03503.581760,E,1,10,0.78,3.0,M,0.0,M,,*55
$GPRMC,075612.196,A,3248.332569,N,03503.581760,E,64.9,221.4,160509,,,A*5F
$GPGGA,075613.197,3248.319051,N,03503.567563,E,1,10,0.78,3.0,M,0.0,M,,*5B
$GPRMC,075613.197,A,3248.319051,N,03503.567563,E,64.9,221.4,160509,,,A*51
$GPGSA,A,3,21,26,08,29,27,10,02,06,24,09,,,1.32,0.78,1.07*00
$GPGSV,3,1,12,29,68,282,46,10,63,046,46,26,56,260,50,02,37,161,44*75
$GPGSV,3,2,12,08,35,057,49,47,32,125,46,24,20,152,47,06,16,274,42*7B
$GPGSV,3,3,12,27,13,039,41,21,09,319,46,09,06,197,34,04,03,149,17*7B
$GPGGA,075614.208,3248.305533,N,03503.553367,E,1,10,0.78,3.0,M,0.0,M,,*50
$GPRMC,075614.208,A,3248.305533,N,03503.553367,E,64.9,221.4,160509,,,A*5A
$GPGGA,075615.200,3248.292016,N,03503.539170,E,1,10,0.78,3.0,M,0.0,M,,*5C
$GPRMC,075615.200,A,3248.292016,N,03503.539170,E,64.9,221.4,160509,,,A*56
$GPGGA,075616.213,3248.278498,N,03503.524973,E,1,10,0.78,3.0,M,0.0,M,,*5C
$GPRMC,075616.213,A,3248.278498,N,03503.524973,E,64.9,221.4,160509,,,A*56
$GPGSA,A,3,21,26,08,29,27,10,02,06,24,09,,,1.32,0.78,1.07*00
$GPGSV,3,1,12,29,68,282,46,10,63,046,46,26,56,260,50,02,37,161,44*75
$GPGSV,3,2,12,08,35,057,49,47,32,125,46,24,20,152,47,06,16,274,42*7B
$GPGSV,3,3,12,27,13,039,41,21,09,319,46,09,06,197,34,04,03,149,17*7B
$GPGGA,075617.204,3248.264980,N,03503.510777,E,1,10,0.78,3.0,M,0.0,M,,*5F
$GPRMC,075617.204,A,3248.264980,N,03503.510777,E,64.9,221.4,160509,,,A*55
$GPGGA,075618.206,3248.251462,N,03503.496581,E,1,10,0.78,3.0,M,0.0,M,,*51
$GPRMC,075618.206,A,3248.251462,N,03503.496581,E,64.9,221.4,160509,,,A*5B
$GPGGA,075619.207,3248.237944,N,03503.482384,E,1,10,0.78,3.0,M,0.0,M,,*5E
$GPRMC,075619.207,A,3248.237944,N,03503.482384,E,64.9,221.4,160509,,,A*54
$GPGSA,A,3,21,26,08,29,27,10,02,06,24,09,,,1.32,0.78,1.07*00
$GPGSV,3,1,12,29,68,282,46,10,63,046,46,26,56,260,50,02,37,161,44*75
$GPGSV,3,2,12,08,35,057,49,47,32,125,46,24,20,152,47,06,16,274,42*7B
$GPGSV,3,3,12,27,13,039,41,21,09,319,46,09,06,197,34,04,03,149,17*7B
$GPGGA,075620.219,3248.224425,N,03503.468188,E,1,10,0.78,3.0,M,0.0,M,,*59
$GPRMC,075620.219,A,3248.224425,N,03503.468188,E,64.9,221.4,160509,,,A*53
$GPGGA,075621.220,3248.210907,N,03503.453992,E,1,10,0.78,3.0,M,0.0,M,,*53
$GPRMC,075621.220,A,3248.210907,N,03503.453992,E,64.9,221.4,160509,,,A*59
$GPGGA,075622.212,3248.197389,N,03503.439796,E,1,10,0.78,3.0,M,0.0,M,,*57
$GPRMC,075622.212,A,3248.197389,N,03503.439796,E,64.9,221.4,160509,,,A*5D
$GPGSA,A,3,21,26,08,29,27,10,02,06,24,09,,,1.32,0.78,1.07*00
$GPGSV,3,1,12,29,68,282,46,10,63,046,46,26,56,260,50,02,37,161,44*75
$GPGSV,3,2,12,08,35,057,49,47,32,125,46,24,20,152,47,06,16,274,42*7B
$GPGSV,3,3,12,27,13,039,41,21,09,319,46,09,06,197,34,04,03,149,17*7B
$GPGGA,075623.213,3248.183871,N,03503.425600,E,1,10,0.78,3.0,M,0.0,M,,*5D
$GPRMC,075623.213,A,3248.183871,N,03503.425600,E,64.9,221.4,160509,,,A*57
$GPGGA,075624.214,3248.170353,N,03503.411404,E,1,10,0.78,3.0,M,0.0,M,,*5B
$GPRMC,075624.214,A,3248.170353,N,03503.411404,E,64.9,221.4,160509,,,A*51
$GPGGA,075625.216,3248.156835,N,03503.397208,E,1,10,0.78,3.0,M,0.0,M,,*54
$GPRMC,075625.216,A,3248.156835,N,03503.397208,E,64.9,221.4,160509,,,A*5E
$GPGSA,A,3,21,26,08,29,27,10,02,06,24,09,,,1.32,0.78,1.07*00
$GPGSV,3,1,12,29,68,282,46,10,63,046,46,26,56,260,50,02,37,161,44*75
$GPGSV,3,2,12,08,35,057,49,47,32,125,46,24,20,152,47,06,16,274,42*7B
$GPGSV,3,3,12,27,13,039,41,21,09,319,46,09,06,197,34,04,03,149,17*7B
$GPGGA,075626.217,3248.143317,N,03503.383012,E,1,10,0.78,3.0,M,0.0,M,,*55
$GPRMC,075626.217,A,3248.143317,N,03503.383012,E,64.9,221.4,160509,,,A*5F
$GPGGA,075627.219,3248.129798,N,03503.368816,E,1,10,0.78,3.0,M,0.0,M,,*5C
$GPRMC,075627.219,A,3248.129798,N,03503.368816,E,64.9,221.4,160509,,,A*56
$GPGGA,075628.220,3248.116280,N,03503.354621,E,1,10,0.78,3.0,M,0.0,M,,*5C
$GPRMC,075628.220,A,3248.116280,N,03503.354621,E,64.9,221.4,160509,,,A*56
$GPGSA,A,3,21,26,08,29,27,10,02,06,24,09,,,1.32,0.78,1.07*00
$GPGSV,3,1,12,29,68,282,46,10,63,046,46,26,56,260,50,02,37,161,44*75
$GPGSV,3,2,12,08,35,057,49,47,32,125,46,24,20,152,47,06,16,274,42*7B
$GPGSV,3,3,12,27,13,039,41,21,09,319,46,09,06,197,34,04,03,149,17*7B
$GPGGA,075629.222,3248.102762,N,03503.340425,E,1,10,0.78,3.0,M,0.0,M,,*50
$GPRMC,075629.222,A,3248.102762,N,03503.340425,E,64.9,221.4,160509,,,A*5A
$GPGGA,075630.223,3248.089243,N,03503.326230,E,1,10,0.78,3.0,M,0.0,M,,*5F
$GPRMC,075630.223,A,3248.089243,N,03503.326230,E,64.9,221.4,160509,,,A*55
$GPGGA,075631.225,3248.075725,N,03503.312034,E,1,10,0.78,3.0,M,0.0,M,,*5F
$GPRMC,075631.225,A,3248.075725,N,03503.312034,E,64.9,221.4,160509,,,A*55
$GPGSA,A,3,21,26,08,29,27,10,02,06,24,09,,,1.32,0.78,1.07*00
$GPGSV,3,1,12,29,68,282,46,10,63,046,46,26,56,260,50,02,37,161,44*75
$GPGSV,3,2,12,08,35,057,49,47,32,125,46,24,20,152,47,06,16,274,42*7B
$GPGSV,3,3,12,27,13,039,41,21,09,319,46,09,06,197,34,04,03,149,17*7B
$GPGGA,075632.236,3248.062207,N,03503.297839,E,1,10,0.78,3.0,M,0.0,M,,*54
$GPRMC,075632.236,A,3248.062207,N,03503.297839,E,64.9,221.4,160509,,,A*5E
$GPGGA,075633.227,3248.048688,N,03503.283644,E,1,10,0.78,3.0,M,0.0,M,,*5F
$GPRMC,075633.227,A,3248.048688,N,03503.283644,E,64.9,221.4,160509,,,A*55
$GPGGA,075634.229,3248.035170,N,03503.269448,E,1,10,0.78,3.0,M,0.0,M,,*56
$GPRMC,075634.229,A,3248.035170,N,03503.269448,E,64.9,221.4,160509,,,A*5C
$GPGSA,A,3,21,26,08,29,27,10,02,06,24,09,,,1.32,0.78,1.07*00
$GPGSV,3,1,12,29,68,282,46,10,63,046,46,26,56,260,50,02,37,161,44*75
$GPGSV,3,2,12,08,35,057,49,47,32,125,46,24,20,152,47,06,16,274,42*7B
$GPGSV,3,3,12,27,13,039,41,21,09,319,46,09,06,197,34,04,03,149,17*7B
$GPGGA,075635.230,3248.021651,N,03503.255253,E,1,10,0.78,3.0,M,0.0,M,,*5D
$GPRMC,075635.230,A,3248.021651,N,03503.255253,E,64.9,221.4,160509,,,A*57
$GPGGA,075636.242,3248.008133,N,03503.241058,E,1,10,0.78,3.0,M,0.0,M,,*5F
$GPRMC,075636.242,A,3248.008133,N,03503.241058,E,64.9,221.4,160509,,,A*55
$GPGGA,075637.233,3247.994614,N,03503.226863,E,1,10,0.78,3.0,M,0.0,M,,*58
$GPRMC,075637.233,A,3247.994614,N,03503.226863,E,64.9,221.4,160509,,,A*52
$GPGSA,A,3,21,26,08,29,27,10,02,06,24,09,,,1.32,0.78,1.07*00
$GPGSV,3,1,12,29,68,282,46,10,63,046,46,26,56,260,50,02,37,161,44*75
$GPGSV,3,2,12,08,35,057,49,47,32,125,46,24,20,152,47,06,16,274,42*7B
$GPGSV,3,3,12,27,13,039,41,21,09,319,46,09,06,197,34,04,03,149,17*7B
$GPGGA,075638.235,3247.981096,N,03503.212668,E,1,10,0.78,3.0,M,0.0,M,,*5B
$GPRMC,075638.235,A,3247.981096,N,03503.212668,E,64.9,221.4,160509,,,A*51
$GPGGA,075639.236,3247.967577,N,03503.198473,E,1,10,0.78,3.0,M,0.0,M,,*52
$GPRMC,075639.236,A,3247.967577,N,03503.198473,E,64.9,221.4,160509,,,A*58
$GPGGA,075640.248,3247.954059,N,03503.184279,E,1,10,0.78,3.0,M,0.0,M,,*5D
$GPRMC,075640.248,A,3247.954059,N,03503.184279,E,64.9,221.4,160509,,,A*57
$GPGSA,A,3,21,26,08,29,27,10,02,06,24,09,,,1.32,0.78,1.07*00
$GPGSV,3,1,12,29,68,282,46,10,63,046,46,26,56,260,50,02,37,161,44*75
$GPGSV,3,2,12,08,35,057,49,47,32,125,46,24,20,152,47,06,16,274,42*7B
$GPGSV,3,3,12,27,13,039,41,21,09,319,46,09,06,197,34,04,03,149,17*7B
$GPGGA,075641.239,3247.940540,N,03503.170084,E,1,10,0.78,3.0,M,0.0,M,,*59
$GPRMC,075641.239,A,3247.940540,N,03503.170084,E,64.9,221.4,160509,,,A*53
$GPGGA,075642.240,3247.927021,N,03503.155889,E,1,10,0.78,3.0,M,0.0,M,,*55
$GPRMC,075642.240,A,3247.927021,N,03503.155889,E,64.9,221.4,160509,,,A*5F
$GPGGA,075643.242,3247.913503,N,03503.141695,E,1,10,0.78,3.0,M,0.0,M,,*52
$GPRMC,075643.242,A,3247.913503,N,03503.141695,E,64.9,221.4,160509,,,A*58
$GPGSA,A,3,21,26,08,29,27,10,02,06,24,09,,,1.32,0.78,1.07*00
$GPGSV,3,1,12,29,68,282,46,10,63,046,46,26,56,260,50,02,37,161,44*75
$GPGSV,3,2,12,08,35,057,49,47,32,125,46,24,20,152,47,06,16,274,42*7B
$GPGSV,3,3,12,27,13,039,41,21,09,319,46,09,06,197,34,04,03,149,17*7B
$GPGGA,075644.243,3247.899984,N,03503.127500,E,1,10,0.78,3.0,M,0.0,M,,*5B
$GPRMC,075644.243,A,3247.899984,N,03503.127500,E,64.9,221.4,160509,,,A*51
$GPGGA,075645.245,3247.886465,N,03503.113306,E,1,10,0.78,3.0,M,0.0,M,,*57
$GPRMC,075645.245,A,3247.886465,N,03503.113306,E,64.9,221.4,160509,,,A*5D
$GPGGA,075646.246,3247.872946,N,03503.099111,E,1,10,0.78,3.0,M,0.0,M,,*57
$GPRMC,075646.246,A,3247.872946,N,03503.099111,E,64.9,221.4,160509,,,A*5D
$GPGSA,A,3,21,26,08,29,27,10,02,06,24,09,,,1.32,0.78,1.07*00
$GPGSV,3,1,12,29,68,282,46,10,63,046,46,26,56,260,50,02,37,161,44*75
$GPGSV,3,2,12,08,35,057,49,47,32,125,46,24,20,152,47,06,16,274,42*7B
$GPGSV,3,3,12,27,13,039,41,21,09,319,46,09,06,197,34,04,03,149,17*7B
$GPGGA,075647.248,3247.859428,N,03503.084917,E,1,10,0.78,3.0,M,0.0,M,,*56
$GPRMC,075647.248,A,3247.859428,N,03503.084917,E,64.9,221.4,160509,,,A*5C
$GPGGA,075648.249,3247.845909,N,03503.070723,E,1,10,0.78,3.0,M,0.0,M,,*59
$GPRMC,075648.249,A,3247.845909,N,03503.070723,E,64.9,221.4,160509,,,A*53
$GPGGA,075649.250,3247.832390,N,03503.056529,E,1,10,0.78,3.0,M,0.0,M,,*56
$GPRMC,075649.250,A,3247.832390,N,03503.056529,E,64.9,221.4,160509,,,A*5C
$GPGSA,A,3,21,26,08,29,27,10,02,06,24,09,,,1.32,0.78,1.07*00
$GPGSV,3,1,12,29,68,282,46,10,63,046,46,26,56,260,50,02,37,161,44*75
$GPGSV,3,2,12,08,35,057,49,47,32,125,46,24,20,152,47,06,16,274,42*7B
$GPGSV,3,3,12,27,13,039,41,21,09,319,46,09,06,197,34,04,03,149,17*7B
$GPGGA,075650.252,3247.818871,N,03503.042335,E,1,10,0.78,3.0,M,0.0,M,,*5E
$GPRMC,075650.252,A,3247.818871,N,03503.042335,E,64.9,221.4,160509,,,A*54
$GPGGA,075651.253,3247.805352,N,03503.028141,E,1,10,0.78,3.0,M,0.0,M,,*55
$GPRMC,075651.253,A,3247.805352,N,03503.028141,E,64.9,221.4,160509,,,A*5F
$GPGGA,075652.255,3247.791833,N,03503.013947,E,1,10,0.78,3.0,M,0.0,M,,*58
$GPRMC,075652.255,A,3247.791833,N,03503.013947,E,64.9,221.4,160509,,,A*52
$GPGSA,A,3,21,26,08,29,27,10,02,06,24,09,,,1.32,0.78,1.07*00
$GPGSV,3,1,12,29,68,282,46,10,63,046,46,26,56,260,50,02,37,161,44*75
$GPGSV,3,2,12,08,35,057,49,47,32,125,46,24,20,152,47,06,16,274,42*7B
$GPGSV,3,3,12,27,13,039,41,21,09,319,46,09,06,197,34,04,03,149,17*7B
$GPGGA,075653.256,3247.778314,N,03502.999753,E,1,10,0.78,3.0,M,0.0,M,,*52
$GPRMC,075653.256,A,3247.778314,N,03502.999753,E,64.9,221.4,160509,,,A*58
$GPGGA,075654.258,3247.764795,N,03502.985559,E,1,10,0.78,3.0,M,0.0,M,,*5E
$GPRMC,075654.258,A,3247.764795,N,03502.985559,E,64.9,221.4,160509,,,A*54
$GPGGA,075655.259,3247.751276,N,03502.971365,E,1,10,0.78,3.0,M,0.0,M,,*52
$GPRMC,075655.259,A,3247.751276,N,03502.971365,E,64.9,221.4,160509,,,A*58
$GPGSA,A,3,21,26,08,29,27,10,02,06,24,09,,,1.32,0.78,1.07*00
$GPGSV,3,1,12,29,68,282,46,10,63,046,46,26,56,260,50,02,37,161,44*75
$GPGSV,3,2,12,08,35,057,49,47,32,125,46,24,20,152,47,06,16,274,42*7B
$GPGSV,3,3,12,27,13,039,41,21,09,319,46,09,06,197,34,04,03,149,17*7B
$GPGGA,075656.261,3247.737757,N,03502.957172,E,1,10,0.78,3.0,M,0.0,M,,*5C
$GPRMC,075656.261,A,3247.737757,N,03502.957172,E,64.9,221.4,160509,,,A*56
$GPGGA,075657.272,3247.724238,N,03502.942978,E,1,10,0.78,3.0,M,0.0,M,,*57
$GPRMC,075657.272,A,3247.724238,N,03502.942978,E,64.9,221.4,160509,,,A*5D
$GPGGA,075658.263,3247.710719,N,03502.928785,E,1,10,0.78,3.0,M,0.0,M,,*59
$GPRMC,075658.263,A,3247.710719,N,03502.928785,E,64.9,221.4,160509,,,A*53
$GPGSA,A,3,21,26,08,29,27,10,02,06,24,09,,,1.32,0.78,1.07*00
$GPGSV,3,1,12,29,68,282,46,10,63,046,46,26,56,260,50,02,37,161,44*75
$GPGSV,3,2,12,08,35,057,49,47,32,125,46,24,20,152,47,06,16,274,42*7B
$GPGSV,3,3,12,27,13,039,41,21,09,319,46,09,06,197,34,04,03,149,17*7B
$GPGGA,075659.265,3247.697200,N,03502.914591,E,1,10,0.78,3.0,M,0.0,M,,*55
$GPRMC,075659.265,A,3247.697200,N,03502.914591,E,64.9,221.4,160509,,,A*5F
$GPGGA,075700.266,3247.683681,N,03502.900398,E,1,10,0.78,3.0,M,0.0,M,,*59
$GPRMC,075700.266,A,3247.683681,N,03502.900398,E,64.9,221.4,160509,,,A*53
$GPGGA,075701.268,3247.670162,N,03502.886204,E,1,10,0.78,3.0,M,0.0,M,,*5B
$GPRMC,075701.268,A,3247.670162,N,03502.886204,E,64.9,221.4,160509,,,A*51
$GPGSA,A,3,21,26,08,29,27,10,02,06,24,09,,,1.32,0.78,1.07*00
$GPGSV,3,1,12,29,68,282,46,10,63,046,46,26,56,260,50,02,37,161,44*75
$GPGSV,3,2,12,08,35,057,49,47,32,125,46,24,20,152,47,06,16,274,42*7B
$GPGSV,3,3,12,27,13,039,41,21,09,319,46,09,06,197,34,04,03,149,17*7B
$GPGGA,075702.269,3247.656643,N,03502.872011,E,1,10,0.78,3.0,M,0.0,M,,*54
$GPRMC,075702.269,A,3247.656643,N,03502.872011,E,64.9,221.4,160509,,,A*5E
$GPGGA,075703.271,3247.643123,N,03502.857818,E,1,10,0.78,3.0,M,0.0,M,,*5F
$GPRMC,075703.271,A,3247.643123,N,03502.857818,E,64.9,221.4,160509,,,A*55
$GPGGA,075704.272,3247.629604,N,03502.843625,E,1,10,0.78,3.0,M,0.0,M,,*50
$GPRMC,075704.272,A,3247.629604,N,03502.843625,E,64.9,221.4,160509,,,A*5A
$GPGSA,A,3,21,26,08,29,27,10,02,06,24,09,,,1.32,0.78,1.07*00
$GPGSV,3,1,12,29,68,282,46,10,63,046,46,26,56,260,50,02,37,161,44*75
$GPGSV,3,2,12,08,35,057,49,47,32,125,46,24,20,152,47,06,16,274,42*7B
$GPGSV,3,3,12,27,13,039,41,21,09,319,46,09,06,197,34,04,03,149,17*7B
$GPGGA,075705.274,3247.616085,N,03502.829432,E,1,10,0.78,3.0,M,0.0,M,,*5C
$GPRMC,075705.274,A,3247.616085,N,03502.829432,E,64.9,221.4,160509,,,A*56
$GPGGA,075706.275,3247.602566,N,03502.815239,E,1,10,0.78,3.0,M,0.0,M,,*51
$GPRMC,075706.275,A,3247.602566,N,03502.815239,E,64.9,221.4,160509,,,A*5B
$GPGGA,075707.276,3247.589046,N,03502.801046,E,1,10,0.78,3.0,M,0.0,M,,*5B
$GPRMC,075707.276,A,3247.589046,N,03502.801046,E,64.9,221.4,160509,,,A*51
$GPGSA,A,3,21,26,08,29,27,10,02,06,24,09,,,1.32,0.78,1.07*00
$GPGSV,3,1,12,29,68,282,46,10,63,046,46,26,56,260,50,02,37,161,44*75
$GPGSV,3,2,12,08,35,057,49,47,32,125,46,24,20,152,47,06,16,274,42*7B
$GPGSV,3,3,12,27,13,039,41,21,09,319,46,09,06,197,34,04,03,149,17*7B
$GPGGA,075708.288,3247.575527,N,03502.786853,E,1,10,0.78,3.0,M,0.0,M,,*58
$GPRMC,075708.288,A,3247.575527,N,03502.786853,E,64.9,221.4,160509,,,A*52
$GPGGA,075709.279,3247.562008,N,03502.772661,E,1,10,0.78,3.0,M,0.0,M,,*5D
$GPRMC,075709.279,A,3247.562008,N,03502.772661,E,64.9,221.4,160509,,,A*57
$GPGGA,075710.281,3247.548488,N,03502.758468,E,1,10,0.78,3.0,M,0.0,M,,*55
$GPRMC,075710.281,A,3247.548488,N,03502.758468,E,64.9,221.4,160509,,,A*5F
$GPGSA,A,3,21,26,08,29,27,10,02,06,24,09,,,1.32,0.78,1.07*00
$GPGSV,3,1,12,29,68,282,46,10,63,046,46,26,56,260,50,02,37,161,44*75
$GPGSV,3,2,12,08,35,057,49,47,32,125,46,24,20,152,47,06,16,274,42*7B
$GPGSV,3,3,12,27,13,039,41,21,09,319,46,09,06,197,34,04,03,149,17*7B
$GPGGA,075711.282,3247.534969,N,03502.744276,E,1,10,0.78,3.0,M,0.0,M,,*5A
$GPRMC,075711.282,A,3247.534969,N,03502.744276,E,64.9,221.4,160509,,,A*50
$GPGGA,075712.284,3247.521449,N,03502.730083,E,1,10,0.78,3.0,M,0.0,M,,*5F
$GPRMC,075712.284,A,3247.521449,N,03502.730083,E,64.9,221.4,160509,,,A*55
$GPGGA,075713.285,3247.507930,N,03502.715891,E,1,10,0.78,3.0,M,0.0,M,,*54
$GPRMC,075713.285,A,3247.507930,N,03502.715891,E,64.9,221.4,160509,,,A*5E
$GPGSA,A,3,21,26,08,29,27,10,02,06,24,09,,,1.32,0.78,1.07*00
$GPGSV,3,1,12,29,68,282,46,10,63,046,46,26,56,260,50,02,37,161,44*75
$GPGSV,3,2,12,08,35,057,49,47,32,125,46,24,20,152,47,06,16,274,42*7B
$GPGSV,3,3,12,27,13,039,41,21,09,319,46,09,06,197,34,04,03,149,17*7B
$GPGGA,075714.286,3247.494410,N,03502.701698,E,1,10,0.78,3.0,M,0.0,M,,*56
$GPRMC,075714.286,A,3247.494410,N,03502.701698,E,64.9,221.4,160509,,,A*5C
$GPGGA,075715.288,3247.480891,N,03502.687506,E,1,10,0.78,3.0,M,0.0,M,,*52
$GPRMC,075715.288,A,3247.480891,N,03502.687506,E,64.9,221.4,160509,,,A*58
$GPGGA,075716.291,3247.467371,N,03502.673314,E,1,10,0.78,3.0,M,0.0,M,,*5B
$GPRMC,075716.291,A,3247.467371,N,03502.673314,E,64.9,221.4,160509,,,A*51
$GPGSA,A,3,21,26,08,29,27,10,02,06,24,09,,,1.32,0.78,1.07*00
$GPGSV,3,1,12,29,68,282,46,10,63,046,46,26,56,260,50,02,37,161,44*75
$GPGSV,3,2,12,08,35,057,49,47,32,125,46,24,20,152,47,06,16,274,42*7B
$GPGSV,3,3,12,27,13,039,41,21,09,319,46,09,06,197,34,04,03,149,17*7B
$GPGGA,075717.303,3247.453852,N,03502.659122,E,1,10,0.78,3.0,M,0.0,M,,*52
$GPRMC,075717.303,A,3247.453852,N,03502.659122,E,64.9,221.4,160509,,,A*58
$GPGGA,075718.294,3247.440332,N,03502.644930,E,1,10,0.78,3.0,M,0.0,M,,*5A
$GPRMC,075718.294,A,3247.440332,N,03502.644930,E,64.9,221.4,160509,,,A*50
$GPGGA,075719.295,3247.426812,N,03502.630738,E,1,10,0.78,3.0,M,0.0,M,,*56
$GPRMC,075719.295,A,3247.426812,N,03502.630738,E,64.9,221.4,160509,,,A*5C
$GPGSA,A,3,21,26,08,29,27,10,02,06,24,09,,,1.32,0.78,1.07*00
$GPGSV,3,1,12,29,68,282,46,10,63,046,46,26,56,260,50,02,37,161,44*75
$GPGSV,3,2,12,08,35,057,49,47,32,125,46,24,20,152,47,06,16,274,42*7B
$GPGSV,3,3,12,27,13,039,41,21,09,319,46,09,06,197,34,04,03,149,17*7B
$GPGGA,075720.297,3247.413293,N,03502.616546,E,1,10,0.78,3.0,M,0.0,M,,*54
$GPRMC,075720.297,A,3247.413293,N,03502.616546,E,64.9,221.4,160509,,,A*5E
$GPGGA,075721.298,3247.399773,N,03502.602354,E,1,10,0.78,3.0,M,0.0,M,,*54
$GPRMC,075721.298,A,3247.399773,N,03502.602354,E,64.9,221.4,160509,,,A*5E
$GPGGA,075722.300,3247.386253,N,03502.588162,E,1,10,0.78,3.0,M,0.0,M,,*58
$GPRMC,075722.300,A,3247.386253,N,03502.588162,E,64.9,221.4,160509,,,A*52
$GPGSA,A,3,21,26,08,29,27,10,02,06,24,09,,,1.32,0.78,1.07*00
$GPGSV,3,1,12,29,68,282,46,10,63,046,46,26,56,260,50,02,37,161,44*75
$GPGSV,3,2,12,08,35,057,49,47,32,125,46,24,20,152,47,06,16,274,42*7B
$GPGSV,3,3,12,27,13,039,41,21,09,319,46,09,06,197,34,04,03,149,17*7B
$GPGGA,075723.301,3247.372734,N,03502.573970,E,1,10,0.78,3.0,M,0.0,M,,*58
$GPRMC,075723.301,A,3247.372734,N,03502.573970,E,64.9,221.4,160509,,,A*52
$GPGGA,075724.303,3247.359214,N,03502.559779,E,1,10,0.78,3.0,M,0.0,M,,*5C
$GPRMC,075724.303,A,3247.359214,N,03502.559779,E,64.9,221.4,160509,,,A*56
$GPGGA,075725.304,3247.345694,N,03502.545587,E,1,10,0.78,3.0,M,0.0,M,,*55
$GPRMC,075725.304,A,3247.345694,N,03502.545587,E,64.9,221.4,160509,,,A*5F
$GPGSA,A,3,21,26,08,29,27,10,02,06,24,09,,,1.32,0.78,1.07*00
$GPGSV,3,1,12,29,68,282,46,10,63,046,46,26,56,260,50,02,37,161,44*75
$GPGSV,3,2,12,08,35,057,49,47,32,125,46,24,20,152,47,06,16,274,42*7B
$GPGSV,3,3,12,27,13,039,41,21,09,319,46,09,06,197,34,04,03,149,17*7B
$GPGGA,075726.305,3247.332174,N,03502.531396,E,1,10,0.78,3.0,M,0.0,M,,*5B
$GPRMC,075726.305,A,3247.332174,N,03502.531396,E,64.9,221.4,160509,,,A*51
$GPGGA,075727.307,3247.318654,N,03502.517204,E,1,10,0.78,3.0,M,0.0,M,,*5B
$GPRMC,075727.307,A,3247.318654,N,03502.517204,E,64.9,221.4,160509,,,A*51
$GPGGA,075728.308,3247.305134,N,03502.503013,E,1,10,0.78,3.0,M,0.0,M,,*57
$GPRMC,075728.308,A,3247.305134,N,03502.503013,E,64.9,221.4,160509,,,A*5D
$GPGSA,A,3,21,26,08,29,27,10,02,06,24,09,,,1.32,0.78,1.07*00
$GPGSV,3,1,12,29,68,282,46,10,63,046,46,26,56,260,50,02,37,161,44*75
$GPGSV,3,2,12,08,35,057,49,47,32,125,46,24,20,152,47,06,16,274,42*7B
$GPGSV,3,3,12,27,13,039,41,21,09,319,46,09,06,197,34,04,03,149,17*7B
$GPGGA,075729.310,3247.291614,N,03502.488822,E,1,10,0.78,3.0,M,0.0,M,,*5E
$GPRMC,075729.310,A,3247.291614,N,03502.488822,E,64.9,221.4,160509,,,A*54
$GPGGA,075730.311,3247.278095,N,03502.474631,E,1,10,0.78,3.0,M,0.0,M,,*50
$GPRMC,075730.311,A,3247.278095,N,03502.474631,E,64.9,221.4,160509,,,A*5A
$GPGGA,075731.313,3247.264575,N,03502.460439,E,1,10,0.78,3.0,M,0.0,M,,*5A
$GPRMC,075731.313,A,3247.264575,N,03502.460439,E,64.9,221.4,160509,,,A*50
$GPGSA,A,3,21,26,08,29,27,10,02,06,24,09,,,1.32,0.78,1.07*00
$GPGSV,3,1,12,29,68,282,46,10,63,046,46,26,56,260,50,02,37,161,44*75
$GPGSV,3,2,12,08,35,057,49,47,32,125,46,24,20,152,47,06,16,274,42*7B
$GPGSV,3,3,12,27,13,039,41,21,09,319,46,09,06,197,34,04,03,149,17*7B
$GPGGA,075732.324,3247.251055,N,03502.446248,E,1,10,0.78,3.0,M,0.0,M,,*58
$GPRMC,075732.324,A,3247.251055,N,03502.446248,E,64.9,221.4,160509,,,A*52
$GPGGA,075733.316,3247.237535,N,03502.432057,E,1,10,0.78,3.0,M,0.0,M,,*54
$GPRMC,075733.316,A,3247.237535,N,03502.432057,E,64.9,221.4,160509,,,A*5E
$GPGGA,075734.327,3247.224015,N,03502.417866,E,1,10,0.78,3.0,M,0.0,M,,*59
$GPRMC,075734.327,A,3247.224015,N,03502.417866,E,64.9,221.4,160509,,,A*53
$GPGSA,A,3,21,26,08,29,27,10,02,06,24,09,,,1.32,0.78,1.07*00
$GPGSV,3,1,12,29,68,282,46,10,63,046,46,26,56,260,50,02,37,161,44*75
$GPGSV,3,2,12,08,35,057,49,47,32,125,46,24,20,152,47,06,16,274,42*7B
$GPGSV,3,3,12,27,13,039,41,21,09,319,46,09,06,197,34,04,03,149,17*7B
$GPGGA,075735.318,3247.210494,N,03502.403676,E,1,10,0.78,3.0,M,0.0,M,,*54
$GPRMC,075735.318,A,3247.210494,N,03502.403676,E,64.9,221.4,160509,,,A*5E
$GPGGA,075736.320,3247.196974,N,03502.389485,E,1,10,0.78,3.0,M,0.0,M,,*59
$GPRMC,075736.320,A,3247.196974,N,03502.389485,E,64.9,221.4,160509,,,A*53
$GPGGA,075737.321,3247.183454,N,03502.375294,E,1,10,0.78,3.0,M,0.0,M,,*57
$GPRMC,075737.321,A,3247.183454,N,03502.375294,E,64.9,221.4,160509,,,A*5D
$GPGSA,A,3,21,26,08,29,27,10,02,06,24,09,,,1.32,0.78,1.07*00
$GPGSV,3,1,12,29,68,282,46,10,63,046,46,26,56,260,50,02,37,161,44*75
$GPGSV,3,2,12,08,35,057,49,47,32,125,46,24,20,152,47,06,16,274,42*7B
$GPGSV,3,3,12,27,13,039,41,21,09,319,46,09,06,197,34,04,03,149,17*7B
$GPGGA,075738.323,3247.169934,N,03502.361104,E,1,10,0.78,3.0,M,0.0,M,,*5A
$GPRMC,075738.323,A,3247.169934,N,03502.361104,E,64.9,221.4,160509,,,A*50
$GPGGA,075739.324,3247.156414,N,03502.346913,E,1,10,0.78,3.0,M,0.0,M,,*54
$GPRMC,075739.324,A,3247.156414,N,03502.346913,E,64.9,221.4,160509,,,A*5E
$GPGGA,075740.326,3247.142894,N,03502.332722,E,1,10,0.78,3.0,M,0.0,M,,*56
$GPRMC,075740.326,A,3247.142894,N,03502.332722,E,64.9,221.4,160509,,,A*5C
$GPGSA,A,3,21,26,08,29,27,10,02,06,24,09,,,1.32,0.78,1.07*00
$GPGSV,3,1,12,29,68,282,46,10,63,046,46,26,56,260,50,02,37,161,44*75
$GPGSV,3,2,12,08,35,057,49,47,32,125,46,24,20,152,47,06,16,274,42*7B
$GPGSV,3,3,12,27,13,039,41,21,09,319,46,09,06,197,34,04,03,149,17*7B
$GPGGA,075741.327,3247.129374,N,03502.318532,E,1,10,0.78,3.0,M,0.0,M,,*55
$GPRMC,075741.327,A,3247.129374,N,03502.318532,E,64.9,221.4,160509,,,A*5F
$GPGGA,075742.329,3247.115853,N,03502.304342,E,1,10,0.78,3.0,M,0.0,M,,*55
$GPRMC,075742.329,A,3247.115853,N,03502.304342,E,64.9,221.4,160509,,,A*5F
$GPGGA,075743.330,3247.102333,N,03502.290151,E,1,10,0.78,3.0,M,0.0,M,,*5B
$GPRMC,075743.330,A,3247.102333,N,03502.290151,E,64.9,221.4,160509,,,A*51
$GPGSA,A,3,21,26,08,29,27,10,02,06,24,09,,,1.32,0.78,1.07*00
$GPGSV,3,1,12,29,68,282,46,10,63,046,46,26,56,260,50,02,37,161,44*75
$GPGSV,3,2,12,08,35,057,49,47,32,125,46,24,20,152,47,06,16,274,42*7B
$GPGSV,3,3,12,27,13,039,41,21,09,319,46,09,06,197,34,04,03,149,17*7B
$GPGGA,075744.331,3247.088813,N,03502.275961,E,1,10,0.78,3.0,M,0.0,M,,*57
$GPRMC,075744.331,A,3247.088813,N,03502.275961,E,64.9,221.4,160509,,,A*5D
$GPGGA,075745.333,3247.075292,N,03502.261771,E,1,10,0.78,3.0,M,0.0,M,,*5F
$GPRMC,075745.333,A,3247.075292,N,03502.261771,E,64.9,221.4,160509,,,A*55
$GPGGA,075746.334,3247.061772,N,03502.247581,E,1,10,0.78,3.0,M,0.0,M,,*5C
$GPRMC,075746.334,A,3247.061772,N,03502.247581,E,64.9,221.4,160509,,,A*56
$GPGSA,A,3,21,26,08,29,27,10,02,06,24,09,,,1.32,0.78,1.07*00
$GPGSV,3,1,12,29,68,282,46,10,63,046,46,26,56,260,50,02,37,161,44*75
$GPGSV,3,2,12,08,35,057,49,47,32,125,46,24,20,152,47,06,16,274,42*7B
$GPGSV,3,3,12,27,13,039,41,21,09,319,46,09,06,197,34,04,03,149,17*7B
$GPGGA,075747.336,3247.048252,N,03502.233391,E,1,10,0.78,3.0,M,0.0,M,,*57
$GPRMC,075747.336,A,3247.048252,N,03502.233391,E,64.9,221.4,160509,,,A*5D
$GPGGA,075748.347,3247.034731,N,03502.219201,E,1,10,0.78,3.0,M,0.0,M,,*55
$GPRMC,075748.347,A,3247.034731,N,03502.219201,E,64.9,221.4,160509,,,A*5F
$GPGGA,075749.339,3247.021211,N,03502.205011,E,1,10,0.78,3.0,M,0.0,M,,*50
$GPRMC,075749.339,A,3247.021211,N,03502.205011,E,64.9,221.4,160509,,,A*5A
$GPGSA,A,3,21,26,08,29,27,10,02,06,24,09,,,1.32,0.78,1.07*00
$GPGSV,3,1,12,29,68,282,46,10,63,046,46,26,56,260,50,02,37,161,44*75
$GPGSV,3,2,12,08,35,057,49,47,32,125,46,24,20,152,47,06,16,274,42*7B
$GPGSV,3,3,12,27,13,039,41,21,09,319,46,09,06,197,34,04,03,149,17*7B
$GPGGA,075750.340,3247.007690,N,03502.190822,E,1,10,0.78,3.0,M,0.0,M,,*58
$GPRMC,075750.340,A,3247.007690,N,03502.190822,E,64.9,221.4,160509,,,A*52
$GPGGA,075751.351,3246.994170,N,03502.176632,E,1,10,0.78,3.0,M,0.0,M,,*55
$GPRMC,075751.351,A,3246.994170,N,03502.176632,E,64.9,221.4,160509,,,A*5F
$GPGGA,075752.343,3246.980649,N,03502.162442,E,1,10,0.78,3.0,M,0.0,M,,*5D
$GPRMC,075752.343,A,3246.980649,N,03502.162442,E,64.9,221.4,160509,,,A*57
$GPGSA,A,3,21,26,08,29,27,10,02,06,24,09,,,1.32,0.78,1.07*00
$GPGSV,3,1,12,29,68,282,46,10,63,046,46,26,56,260,50,02,37,161,44*75
$GPGSV,3,2,12,08,35,057,49,47,32,125,46,24,20,152,47,06,16,274,42*7B
$GPGSV,3,3,12,27,13,039,41,21,09,319,46,09,06,197,34,04,03,149,17*7B
$GPGGA,075753.344,3246.967129,N,03502.148253,E,1,10,0.78,3.0,M,0.0,M,,*5D
$GPRMC,075753.344,A,3246.967129,N,03502.148253,E,64.9,221.4,160509,,,A*57
$GPGGA,075754.346,3246.953608,N,03502.134063,E,1,10,0.78,3.0,M,0.0,M,,*51
$GPRMC,075754.346,A,3246.953608,N,03502.134063,E,64.9,221.4,160509,,,A*5B
$GPGGA,075755.357,3246.940088,N,03502.119874,E,1,10,0.78,3.0,M,0.0,M,,*5D
$GPRMC,075755.357,A,3246.940088,N,03502.119874,E,64.9,221.4,160509,,,A*57
$GPGSA,A,3,21,26,08,29,27,10,02,06,24,09,,,1.32,0.78,1.07*00
$GPGSV,3,1,12,29,68,282,46,10,63,046,46,26,56,260,50,02,37,161,44*75
$GPGSV,3,2,12,08,35,057,49,47,32,125,46,24,20,152,47,06,16,274,42*7B
$GPGSV,3,3,12,27,13,039,41,21,09,319,46,09,06,197,34,04,03,149,17*7B
$GPGGA,075756.349,3246.926567,N,03502.105685,E,1,10,0.78,3.0,M,0.0,M,,*58
$GPRMC,075756.349,A,3246.926567,N,03502.105685,E,64.9,221.4,160509,,,A*52
$GPGGA,075757.350,3246.913046,N,03502.091495,E,1,10,0.78,3.0,M,0.0,M,,*5E
$GPRMC,075757.350,A,3246.913046,N,03502.091495,E,64.9,221.4,160509,,,A*54
$GPGGA,075758.352,3246.899526,N,03502.077306,E,1,10,0.78,3.0,M,0.0,M,,*56
$GPRMC,075758.352,A,3246.899526,N,03502.077306,E,64.9,221.4,160509,,,A*5C
$GPGSA,A,3,21,26,08,29,27,10,02,06,24,09,,,1.32,0.78,1.07*00
$GPGSV,3,1,12,29,68,282,46,10,63,046,46,26,56,260,50,02,37,161,44*75
$GPGSV,3,2,12,08,35,057,49,47,32,125,46,24,20,152,47,06,16,274,42*7B
$GPGSV,3,3,12,27,13,039,41,21,09,319,46,09,06,197,34,04,03,149,17*7B
$GPGGA,075759.353,3246.886005,N,03502.063117,E,1,10,0.78,3.0,M,0.0,M,,*5B
$GPRMC,075759.353,A,3246.886005,N,03502.063117,E,64.9,221.4,160509,,,A*51
$GPGGA,075800.354,3246.872484,N,03502.048928,E,1,10,0.78,3.0,M,0.0,M,,*54
$GPRMC,075800.354,A,3246.872484,N,03502.048928,E,64.9,221.4,160509,,,A*5E
$GPGGA,075801.356,3246.858963,N,03502.034739,E,1,10,0.78,3.0,M,0.0,M,,*5E
$GPRMC,075801.356,A,3246.858963,N,03502.034739,E,64.9,221.4,160509,,,A*54
$GPGSA,A,3,21,26,08,29,27,10,02,06,24,09,,,1.32,0.78,1.07*00
$GPGSV,3,1,12,29,68,282,46,10,63,046,46,26,56,260,50,02,37,161,44*75
$GPGSV,3,2,12,08,35,057,49,47,32,125,46,24,20,152,47,06,16,274,42*7B
$GPGSV,3,3,12,27,13,039,41,21,09,319,46,09,06,197,34,04,03,149,17*7B
$GPGGA,075802.357,3246.845443,N,03502.020550,E,1,10,0.78,3.0,M,0.0,M,,*57
$GPRMC,075802.357,A,3246.845443,N,03502.020550,E,64.9,221.4,160509,,,A*5D
$GPGGA,075803.359,3246.831922,N,03502.006361,E,1,10,0.78,3.0,M,0.0,M,,*51
$GPRMC,075803.359,A,3246.831922,N,03502.006361,E,64.9,221.4,160509,,,A*5B
$GPGGA,075804.360,3246.818401,N,03501.992173,E,1,10,0.78,3.0,M,0.0,M,,*5D
$GPRMC,075804.360,A,3246.818401,N,03501.992173,E,64.9,221.4,160509,,,A*57
$GPGSA,A,3,21,26,08,29,27,10,02,06,24,09,,,1.32,0.78,1.07*00
$GPGSV,3,1,12,29,68,282,46,10,63,046,46,26,56,260,50,02,37,161,44*75
$GPGSV,3,2,12,08,35,057,49,47,32,125,46,24,20,152,47,06,16,274,42*7B
$GPGSV,3,3,12,27,13,039,41,21,09,319,46,09,06,197,34,04,03,149,17*7B
$GPGGA,075805.362,3246.804880,N,03501.977984,E,1,10,0.78,3.0,M,0.0,M,,*5D
$GPRMC,075805.362,A,3246.804880,N,03501.977984,E,64.9,221.4,160509,,,A*57
$GPGGA,075806.363,3246.791359,N,03501.963795,E,1,10,0.78,3.0,M,0.0,M,,*58
$GPRMC,075806.363,A,3246.791359,N,03501.963795,E,64.9,221.4,160509,,,A*52
$GPGGA,075807.365,3246.777838,N,03501.949607,E,1,10,0.78,3.0,M,0.0,M,,*59
$GPRMC,075807.365,A,3246.777838,N,03501.949607,E,64.9,221.4,160509,,,A*53
$GPGSA,A,3,21,26,08,29,27,10,02,06,24,09,,,1.32,0.78,1.07*00
$GPGSV,3,1,12,29,68,282,46,10,63,046,46,26,56,260,50,02,37,161,44*75
$GPGSV,3,2,12,08,35,057,49,47,32,125,46,24,20,152,47,06,16,274,42*7B
$GPGSV,3,3,12,27,13,039,41,21,09,319,46,09,06,197,34,04,03,149,17*7B
$GPGGA,075808.366,3246.764317,N,03501.935418,E,1,10,0.78,3.0,M,0.0,M,,*56
$GPRMC,075808.366,A,3246.764317,N,03501.935418,E,64.9,221.4,160509,,,A*5C
$GPGGA,075809.377,3246.750796,N,03501.921230,E,1,10,0.78,3.0,M,0.0,M,,*54
$GPRMC,075809.377,A,3246.750796,N,03501.921230,E,64.9,221.4,160509,,,A*5E
$GPGGA,075810.369,3246.737275,N,03501.907042,E,1,10,0.78,3.0,M,0.0,M,,*59
$GPRMC,075810.369,A,3246.737275,N,03501.907042,E,64.9,221.4,160509,,,A*53
$GPGSA,A,3,21,26,08,29,27,10,02,06,24,09,,,1.32,0.78,1.07*00
$GPGSV,3,1,12,29,68,282,46,10,63,046,46,26,56,260,50,02,37,161,44*75
$GPGSV,3,2,12,08,35,057,49,47,32,125,46,24,20,152,47,06,16,274,42*7B
$GPGSV,3,3,12,27,13,039,41,21,09,319,46,09,06,197,34,04,03,149,17*7B
$GPGGA,075811.370,3246.723754,N,03501.892853,E,1,10,0.78,3.0,M,0.0,M,,*56
$GPRMC,075811.370,A,3246.723754,N,03501.892853,E,64.9,221.4,160509,,,A*5C
$GPGGA,075812.372,3246.710233,N,03501.878665,E,1,10,0.78,3.0,M,0.0,M,,*5C
$GPRMC,075812.372,A,3246.710233,N,03501.878665,E,64.9,221.4,160509,,,A*56
$GPGGA,075813.373,3246.696712,N,03501.864477,E,1,10,0.78,3.0,M,0.0,M,,*59
$GPRMC,075813.373,A,3246.696712,N,03501.864477,E,64.9,221.4,160509,,,A*53
$GPGSA,A,3,21,26,08,29,27,10,02,06,24,09,,,1.32,0.78,1.07*00
$GPGSV,3,1,12,29,68,282,46,10,63,046,46,26,56,260,50,02,37,161,44*75
$GPGSV,3,2,12,08,35,057,49,47,32,125,46,24,20,152,47,06,16,274,42*7B
$GPGSV,3,3,12,27,13,039,41,21,09,319,46,09,06,197,34,04,03,149,17*7B
$GPGGA,075814.375,3246.683191,N,03501.850289,E,1,10,0.78,3.0,M,0.0,M,,*51
$GPRMC,075814.375,A,3246.683191,N,03501.850289,E,64.9,221.4,160509,,,A*5B
$GPGGA,075815.376,3246.669670,N,03501.836101,E,1,10,0.78,3.0,M,0.0,M,,*5C
$GPRMC,075815.376,A,3246.669670,N,03501.836101,E,64.9,221.4,160509,,,A*56
$GPGGA,075816.381,3246.656149,N,03501.821913,E,1,10,0.78,3.0,M,0.0,M,,*5B
$GPRMC,075816.381,A,3246.656149,N,03501.821913,E,64.9,221.4,160509,,,A*51
$GPGSA,A,3,21,26,08,29,27,10,02,06,24,09,,,1.32,0.78,1.07*00
$GPGSV,3,1,12,29,68,282,46,10,63,046,46,26,56,260,50,02,37,161,44*75
$GPGSV,3,2,12,08,35,057,49,47,32,125,46,24,20,152,47,06,16,274,42*7B
$GPGSV,3,3,12,27,13,039,41,21,09,319,46,09,06,197,34,04,03,149,17*7B
$GPGGA,075817.383,3246.642628,N,03501.807725,E,1,10,0.78,3.0,M,0.0,M,,*52
$GPRMC,075817.383,A,3246.642628,N,03501.807725,E,64.9,221.4,160509,,,A*58
$GPGGA,075818.394,3246.629106,N,03501.793538,E,1,10,0.78,3.0,M,0.0,M,,*51
$GPRMC,075818.394,A,3246.629106,N,03501.793538,E,64.9,221.4,160509,,,A*5B
$GPGGA,075819.385,3246.615585,N,03501.779350,E,1,10,0.78,3.0,M,0.0,M,,*5C
$GPRMC,075819.385,A,3246.615585,N,03501.779350,E,64.9,221.4,160509,,,A*56
$GPGSA,A,3,21,26,08,29,27,10,02,06,24,09,,,1.32,0.78,1.07*00
$GPGSV,3,1,12,29,68,282,46,10,63,046,46,26,56,260,50,02,37,161,44*75
$GPGSV,3,2,12,08,35,057,49,47,32,125,46,24,20,152,47,06,16,274,42*7B
$GPGSV,3,3,12,27,13,039,41,21,09,319,46,09,06,197,34,04,03,149,17*7B
$GPGGA,075820.387,3246.602064,N,03501.765162,E,1,10,0.78,3.0,M,0.0,M,,*56
$GPRMC,075820.387,A,3246.602064,N,03501.765162,E,64.9,221.4,160509,,,A*5C
$GPGGA,075821.388,3246.588543,N,03501.750975,E,1,10,0.78,3.0,M,0.0,M,,*51
$GPRMC,075821.388,A,3246.588543,N,03501.750975,E,64.9,221.4,160509,,,A*5B
$GPGGA,075822.390,3246.575021,N,03501.736787,E,1,10,0.78,3.0,M,0.0,M,,*5B
$GPRMC,075822.390,A,3246.575021,N,03501.736787,E,64.9,221.4,160509,,,A*51
$GPGSA,A,3,21,26,08,29,27,10,02,06,24,09,,,1.32,0.78,1.07*00
$GPGSV,3,1,12,29,68,282,46,10,63,046,46,26,56,260,50,02,37,161,44*75
$GPGSV,3,2,12,08,35,057,49,47,32,125,46,24,20,152,47,06,16,274,42*7B
$GPGSV,3,3,12,27,13,039,41,21,09,319,46,09,06,197,34,04,03,149,17*7B
$GPGGA,075823.391,3246.561500,N,03501.722600,E,1,10,0.78,3.0,M,0.0,M,,*53
$GPRMC,075823.391,A,3246.561500,N,03501.722600,E,64.9,221.4,160509,,,A*59
$GPGGA,075824.393,3246.575021,N,03501.736787,E,1,10,0.78,3.0,M,0.0,M,,*5E
$GPRMC,075824.393,A,3246.575021,N,03501.736787,E,64.9,41.4,160509,,,A*60
$GPGGA,075825.394,3246.588543,N,03501.750975,E,1,10,0.78,3.0,M,0.0,M,,*58
$GPRMC,075825.394,A,3246.588543,N,03501.750975,E,64.9,41.4,160509,,,A*66
$GPGSA,A,3,21,26,08,29,27,10,02,06,24,09,,,1.32,0.78,1.07*00
$GPGSV,3,1,12,29,68,282,46,10,63,046,46,26,56,260,50,02,37,161,44*75
$GPGSV,3,2,12,08,35,057,49,47,32,125,46,24,20,152,47,06,16,274,42*7B
$GPGSV,3,3,12,27,13,039,41,21,09,319,46,09,06,197,34,04,03,149,17*7B
$GPGGA,075826.396,3246.602064,N,03501.765162,E,1,10,0.78,3.0,M,0.0,M,,*50
$GPRMC,075826.396,A,3246.602064,N,03501.765162,E,64.9,41.4,160509,,,A*6E
$GPGGA,075827.397,3246.615585,N,03501.779350,E,1,10,0.78,3.0,M,0.0,M,,*52
$GPRMC,075827.397,A,3246.615585,N,03501.779350,E,64.9,41.4,160509,,,A*6C
$GPGGA,075828.398,3246.629106,N,03501.793538,E,1,10,0.78,3.0,M,0.0,M,,*5E
$GPRMC,075828.398,A,3246.629106,N,03501.793538,E,64.9,41.4,160509,,,A*60
$GPGSA,A,3,21,26,08,29,27,10,02,06,24,09,,,1.32,0.78,1.07*00
$GPGSV,3,1,12,29,68,282,46,10,63,046,46,26,56,260,50,02,37,161,44*75
$GPGSV,3,2,12,08,35,057,49,47,32,125,46,24,20,152,47,06,16,274,42*7B
$GPGSV,3,3,12,27,13,039,41,21,09,319,46,09,06,197,34,04,03,149,17*7B
$GPGGA,075829.400,3246.642628,N,03501.807725,E,1,10,0.78,3.0,M,0.0,M,,*53
$GPRMC,075829.400,A,3246.642628,N,03501.807725,E,64.9,41.4,160509,,,A*6D
$GPGGA,075830.401,3246.656149,N,03501.821913,E,1,10,0.78,3.0,M,0.0,M,,*50
$GPRMC,075830.401,A,3246.656149,N,03501.821913,E,64.9,41.4,160509,,,A*6E
$GPGGA,075831.403,3246.669670,N,03501.836101,E,1,10,0.78,3.0,M,0.0,M,,*5F
$GPRMC,075831.403,A,3246.669670,N,03501.836101,E,64.9,41.4,160509,,,A*61
$GPGSA,A,3,21,26,08,29,27,10,02,06,24,09,,,1.32,0.78,1.07*00
$GPGSV,3,1,12,29,68,282,46,10,63,046,46,26,56,260,50,02,37,161,44*75
$GPGSV,3,2,12,08,35,057,49,47,32,125,46,24,20,152,47,06,16,274,42*7B
$GPGSV,3,3,12,27,13,039,41,21,09,319,46,09,06,197,34,04,03,149,17*7B
$GPGGA,075832.404,3246.683191,N,03501.850289,E,1,10,0.78,3.0,M,0.0,M,,*54
$GPRMC,075832.404,A,3246.683191,N,03501.850289,E,64.9,41.4,160509,,,A*6A
$GPGGA,075833.406,3246.696712,N,03501.864477,E,1,10,0.78,3.0,M,0.0,M,,*5E
$GPRMC,075833.406,A,3246.696712,N,03501.864477,E,64.9,41.4,160509,,,A*60
$GPGGA,075834.407,3246.710233,N,03501.878665,E,1,10,0.78,3.0,M,0.0,M,,*5D
$GPRMC,075834.407,A,3246.710233,N,03501.878665,E,64.9,41.4,160509,,,A*63
$GPGSA,A,3,21,26,08,29,27,10,02,06,24,09,,,1.32,0.78,1.07*00
$GPGSV,3,1,12,29,68,282,46,10,63,046,46,26,56,260,50,02,37,161,44*75
$GPGSV,3,2,12,08,35,057,49,47,32,125,46,24,20,152,47,06,16,274,42*7B
$GPGSV,3,3,12,27,13,039,41,21,09,319,46,09,06,197,34,04,03,149,17*7B
$GPGGA,075835.409,3246.723754,N,03501.892853,E,1,10,0.78,3.0,M,0.0,M,,*59
$GPRMC,075835.409,A,3246.723754,N,03501.892853,E,64.9,41.4,160509,,,A*67
$GPGGA,075836.410,3246.737275,N,03501.907042,E,1,10,0.78,3.0,M,0.0,M,,*54
$GPRMC,075836.410,A,3246.737275,N,03501.907042,E,64.9,41.4,160509,,,A*6A
$GPGGA,075837.411,3246.750796,N,03501.921230,E,1,10,0.78,3.0,M,0.0,M,,*5E
$GPRMC,075837.411,A,3246.750796,N,03501.921230,E,64.9,41.4,160509,,,A*60
$GPGSA,A,3,21,26,08,29,27,10,02,06,24,09,,,1.32,0.78,1.07*00
$GPGSV,3,1,12,29,68,282,46,10,63,046,46,26,56,260,50,02,37,161,44*75
$GPGSV,3,2,12,08,35,057,49,47,32,125,46,24,20,152,47,06,16,274,42*7B
$GPGSV,3,3,12,27,13,039,41,21,09,319,46,09,06,197,34,04,03,149,17*7B
$GPGGA,075838.413,3246.764317,N,03501.935418,E,1,10,0.78,3.0,M,0.0,M,,*50
$GPRMC,075838.413,A,3246.764317,N,03501.935418,E,64.9,41.4,160509,,,A*6E
$GPGGA,075839.414,3246.777838,N,03501.949607,E,1,10,0.78,3.0,M,0.0,M,,*55
$GPRMC,075839.414,A,3246.777838,N,03501.949607,E,64.9,41.4,160509,,,A*6B
$GPGGA,075840.416,3246.791359,N,03501.963795,E,1,10,0.78,3.0,M,0.0,M,,*5F
$GPRMC,075840.416,A,3246.791359,N,03501.963795,E,64.9,41.4,160509,,,A*61
$GPGSA,A,3,21,26,08,29,27,10,02,06,24,09,,,1.32,0.78,1.07*00
$GPGSV,3,1,12,29,68,282,46,10,63,046,46,26,56,260,50,02,37,161,44*75
$GPGSV,3,2,12,08,35,057,49,47,32,125,46,24,20,152,47,06,16,274,42*7B
$GPGSV,3,3,12,27,13,039,41,21,09,319,46,09,06,197,34,04,03,149,17*7B
$GPGGA,075841.417,3246.804880,N,03501.977984,E,1,10,0.78,3.0,M,0.0,M,,*58
$GPRMC,075841.417,A,3246.804880,N,03501.977984,E,64.9,41.4,160509,,,A*66
$GPGGA,075842.419,3246.818401,N,03501.992173,E,1,10,0.78,3.0,M,0.0,M,,*56
$GPRMC,075842.419,A,3246.818401,N,03501.992173,E,64.9,41.4,160509,,,A*68
$GPGGA,075843.420,3246.831922,N,03502.006361,E,1,10,0.78,3.0,M,0.0,M,,*5C
$GPRMC,075843.420,A,3246.831922,N,03502.006361,E,64.9,41.4,160509,,,A*62
$GPGSA,A,3,21,26,08,29,27,10,02,06,24,09,,,1.32,0.78,1.07*00
$GPGSV,3,1,12,29,68,282,46,10,63,046,46,26,56,260,50,02,37,161,44*75
$GPGSV,3,2,12,08,35,057,49,47,32,125,46,24,20,152,47,06,16,274,42*7B
$GPGSV,3,3,12,27,13,039,41,21,09,319,46,09,06,197,34,04,03,149,17*7B
$GPGGA,075844.421,3246.845443,N,03502.020550,E,1,10,0.78,3.0,M,0.0,M,,*53
$GPRMC,075844.421,A,3246.845443,N,03502.020550,E,64.9,41.4,160509,,,A*6D
$GPGGA,075845.423,3246.858963,N,03502.034739,E,1,10,0.78,3.0,M,0.0,M,,*5B
$GPRMC,075845.423,A,3246.858963,N,03502.034739,E,64.9,41.4,160509,,,A*65
$GPGGA,075846.424,3246.872484,N,03502.048928,E,1,10,0.78,3.0,M,0.0,M,,*56
$GPRMC,075846.424,A,3246.872484,N,03502.048928,E,64.9,41.4,160509,,,A*68
$GPGSA,A,3,21,26,08,29,27,10,02,06,24,09,,,1.32,0.78,1.07*00
$GPGSV,3,1,12,29,68,282,46,10,63,046,46,26,56,260,50,02,37,161,44*75
$GPGSV,3,2,12,08,35,057,49,47,32,125,46,24,20,152,47,06,16,274,42*7B
$GPGSV,3,3,12,27,13,039,41,21,09,319,46,09,06,197,34,04,03,149,17*7B
$GPGGA,075847.426,3246.886005,N,03502.063117,E,1,10,0.78,3.0,M,0.0,M,,*5E
$GPRMC,075847.426,A,3246.886005,N,03502.063117,E,64.9,41.4,160509,,,A*60
$GPGGA,075848.427,3246.899526,N,03502.077306,E,1,10,0.78,3.0,M,0.0,M,,*5D
$GPRMC,075848.427,A,3246.899526,N,03502.077306,E,64.9,41.4,160509,,,A*63
$GPGGA,075849.439,3246.913046,N,03502.091495,E,1,10,0.78,3.0,M,0.0,M,,*56
$GPRMC,075849.439,A,3246.913046,N,03502.091495,E,64.9,41.4,160509,,,A*68
$GPGSA,A,3,21,26,08,29,27,10,02,06,24,09,,,1.32,0.78,1.07*00
$GPGSV,3,1,12,29,68,282,46,10,63,046,46,26,56,260,50,02,37,161,44*75
$GPGSV,3,2,12,08,35,057,49,47,32,125,46,24,20,152,47,06,16,274,42*7B
$GPGSV,3,3,12,27,13,039,41,21,09,319,46,09,06,197,34,04,03,149,17*7B
$GPGGA,075850.430,3246.926567,N,03502.105685,E,1,10,0.78,3.0,M,0.0,M,,*58
$GPRMC,075850.430,A,3246.926567,N,03502.105685,E,64.9,41.4,160509,,,A*66
$GPGGA,075851.432,3246.940088,N,03502.119874,E,1,10,0.78,3.0,M,0.0,M,,*52
$GPRMC,075851.432,A,3246.940088,N,03502.119874,E,64.9,41.4,160509,,,A*6C
$GPGGA,075852.433,3246.953608,N,03502.134063,E,1,10,0.78,3.0,M,0.0,M,,*5D
$GPRMC,075852.433,A,3246.953608,N,03502.134063,E,64.9,41.4,160509,,,A*63
$GPGSA,A,3,21,26,08,29,27,10,02,06,24,09,,,1.32,0.78,1.07*00
$GPGSV,3,1,12,29,68,282,46,10,63,046,46,26,56,260,50,02,37,161,44*75
$GPGSV,3,2,12,08,35,057,49,47,32,125,46,24,20,152,47,06,16,274,42*7B
$GPGSV,3,3,12,27,13,039,41,21,09,319,46,09,06,197,34,04,03,149,17*7B
$GPGGA,075853.434,3246.967129,N,03502.148253,E,1,10,0.78,3.0,M,0.0,M,,*52
$GPRMC,075853.434,A,3246.967129,N,03502.148253,E,64.9,41.4,160509,,,A*6C
$GPGGA,075854.436,3246.980649,N,03502.162442,E,1,10,0.78,3.0,M,0.0,M,,*51
$GPRMC,075854.436,A,3246.980649,N,03502.162442,E,64.9,41.4,160509,,,A*6F
$GPGGA,075855.437,3246.994170,N,03502.176632,E,1,10,0.78,3.0,M,0.0,M,,*59
$GPRMC,075855.437,A,3246.994170,N,03502.176632,E,64.9,41.4,160509,,,A*67
$GPGSA,A,3,21,26,08,29,27,10,02,06,24,09,,,1.32,0.78,1.07*00
$GPGSV,3,1,12,29,68,282,46,10,63,046,46,26,56,260,50,02,37,161,44*75
$GPGSV,3,2,12,08,35,057,49,47,32,125,46,24,20,152,47,06,16,274,42*7B
$GPGSV,3,3,12,27,13,039,41,21,09,319,46,09,06,197,34,04,03,149,17*7B
$GPGGA,075856.449,3247.007690,N,03502.190822,E,1,10,0.78,3.0,M,0.0,M,,*5F
$GPRMC,075856.449,A,3247.007690,N,03502.190822,E,64.9,41.4,160509,,,A*61
$GPGGA,075857.440,3247.021211,N,03502.205011,E,1,10,0.78,3.0,M,0.0,M,,*59
$GPRMC,075857.440,A,3247.021211,N,03502.205011,E,64.9,41.4,160509,,,A*67
