1,V,,,,,,,200509,,*2D
$GPGGA,162958.741,,,,,0,00,,,M,0.0,M,,0000*55
$GPGSA,A,1,,,,,,,,,,,,,,,*1E
$GPGSV,3,1,12,17,60,079,43,15,61,261,33,27,43,321,,26,42,308,36*79
$GPGSV,3,2,12,28,33,047,36,09,22,310,24,08,21,101,36,12,09,253,*7A
$GPGSV,3,3,12,04,07,143,34,10,02,206,,18,01,306,,11,00,044,*72
$GPRMC,162958.741,V,,,,,,,200509,,*22
$GPGGA,162959.745,,,,,0,00,,,M,0.0,M,,0000*50
$GPGSA,A,1,,,,,,,,,,,,,,,*1E
$GPGSV,3,1,12,17,60,079,42,15,61,261,33,27,43,321,,26,42,308,36*78
$GPGSV,3,2,12,28,33,047,35,09,22,310,25,08,21,101,35,12,09,253,*7B
$GPGSV,3,3,12,04,07,143,34,10,02,206,,18,01,306,,11,00,044,*72
$GPRMC,162959.745,V,,,,,,,200509,,*27
$GPGGA,163000.745,,,,,0,00,,,M,0.0,M,,0000*54
$GPGSA,A,1,,,,,,,,,,,,,,,*1E
$GPGSV,3,1,12,17,60,079,42,15,61,261,33,27,43,321,,26,42,308,36*78
$GPGSV,3,2,12,28,33,047,35,09,22,310,24,08,21,101,35,12,09,253,*7A
$GPGSV,3,3,12,04,07,143,34,10,02,206,,18,01,306,,11,00,044,*72
$GPRMC,163000.745,V,,,,,,,200509,,*23
$GPGGA,163001.741,,,,,0,00,,,M,0.0,M,,0000*51
$GPGSA,A,1,,,,,,,,,,,,,,,*1E
$GPGSV,3,1,12,17,60,079,42,15,61,261,32,27,43,321,,26,42,308,36*79
$GPGSV,3,2,12,28,33,047,35,09,22,310,24,08,21,101,35,12,09,253,*7A
$GPGSV,3,3,12,04,07,143,34,10,02,206,,18,01,306,,11,00,044,*72
$GPRMC,163001.741,V,,,,,,,200509,,*26
$GPGGA,163002.741,,,,,0,00,,,M,0.0,M,,0000*52
$GPGSA,A,1,,,,,,,,,,,,,,,*1E
$GPGSV,3,1,12,17,60,079,42,15,61,261,32,27,43,321,,26,42,308,35*7A
$GPGSV,3,2,12,28,33,047,36,09,22,310,24,08,21,101,35,12,09,253,*79
$GPGSV,3,3,12,04,07,143,34,10,02,206,,18,01,306,,11,00,044,*72
$GPRMC,163002.741,V,,,,,,,200509,,*25
$GPGGA,163003.745,3246.5261,N,03501.6911,E,1,04,2.4,155.6,M,18.6,M,,0000*5C
$GPGSA,A,3,17,15,26,04,,,,,,,,,3.5,2.4,2.5*37
$GPGSV,3,1,12,15,61,261,32,17,60,078,42,26,42,308,35,04,07,143,33*7C
$GPGSV,3,2,12,27,43,321,,28,33,047,36,09,22,310,24,08,21,101,35*75
$GPGSV,3,3,12,12,09,253,,10,02,205,,18,01,306,,11,00,043,*7A
$GPRMC,163003.745,A,3246.5261,N,03501.6911,E,0.03,349.76,200509,,*0B
$GPGGA,163004.745,3246.5261,N,03501.6911,E,1,04,2.4,155.4,M,18.6,M,,0000*59
$GPGSA,A,3,17,15,26,04,,,,,,,,,3.5,2.4,2.5*37
$GPGSV,3,1,12,15,61,261,32,17,60,078,42,26,42,308,35,04,07,143,33*7C
$GPGSV,3,2,12,27,43,321,,28,33,047,36,09,22,310,24,08,21,101,35*75
$GPGSV,3,3,12,12,09,253,,10,02,205,,18,01,306,,11,00,043,*7A
$GPRMC,163004.745,A,3246.5261,N,03501.6911,E,0.02,77.21,200509,,*31
$GPGGA,163005.000,3246.5261,N,03501.6911,E,1,04,2.4,155.5,M,18.6,M,,0000*5F
$GPGSA,A,3,17,15,26,04,,,,,,,,,3.5,2.4,2.5*37
$GPGSV,3,1,12,15,61,261,32,17,60,078,42,26,42,308,35,04,07,143,33*7C
$GPGSV,3,2,12,27,43,321,,28,33,047,36,09,22,310,24,08,21,101,35*75
$GPGSV,3,3,12,12,09,253,,10,02,205,,18,01,306,,11,00,043,*7A
$GPRMC,163005.000,A,3246.5261,N,03501.6911,E,0.07,130.26,200509,,*06
$GPGGA,163006.000,3246.5262,N,03501.6910,E,1,04,2.4,155.4,M,18.6,M,,0000*5F
$GPGSA,A,3,17,15,26,04,,,,,,,,,3.5,2.4,2.5*37
$GPGSV,3,1,12,15,61,261,32,17,60,078,42,26,42,308,35,04,07,143,33*7C
$GPGSV,3,2,12,27,43,321,30,28,33,047,36,09,22,310,24,08,21,101,35*76
$GPGSV,3,3,12,12,09,253,,10,02,205,,18,01,306,,11,00,043,*7A
$GPRMC,163006.000,A,3246.5262,N,03501.6910,E,0.01,17.62,200509,,*35
$GPGGA,163007.000,3246.5262,N,03501.6910,E,1,04,2.4,155.4,M,18.6,M,,0000*5E
$GPGSA,A,3,17,15,26,04,,,,,,,,,3.5,2.4,2.5*37
$GPGSV,3,1,12,15,61,261,32,17,60,078,41,26,42,308,35,04,07,143,33*7F
$GPGSV,3,2,12,27,43,321,30,28,33,047,36,09,22,310,24,08,21,101,35*76
$GPGSV,3,3,12,12,09,253,,10,02,205,,18,01,306,,11,00,043,*7A
$GPRMC,163007.000,A,3246.5262,N,03501.6910,E,0.01,202.54,200509,,*07
$GPGGA,163008.000,3246.5263,N,03501.6910,E,1,04,2.4,155.3,M,18.6,M,,0000*57
$GPGSA,A,3,17,15,26,04,,,,,,,,,3.5,2.4,2.5*37
$GPGSV,3,1,12,15,61,261,32,17,60,078,41,26,42,308,35,04,07,143,33*7F
$GPGSV,3,2,12,27,43,321,31,28,33,047,36,09,22,310,24,08,21,101,35*77
$GPGSV,3,3,12,12,09,253,,10,02,205,,18,01,306,,11,00,043,*7A
$GPRMC,163008.000,A,3246.5263,N,03501.6910,E,0.03,29.50,200509,,*34
$GPGGA,163009.000,3246.5263,N,03501.6909,E,1,04,2.4,155.2,M,18.6,M,,0000*5F
$GPGSA,A,3,17,15,26,04,,,,,,,,,3.5,2.4,2.5*37
$GPGSV,3,1,12,15,61,261,32,17,60,078,41,26,42,308,35,04,07,143,33*7F
$GPGSV,3,2,12,27,43,321,30,28,33,047,36,09,22,310,24,08,21,101,35*76
$GPGSV,3,3,12,12,09,253,,10,02,205,,18,01,306,,11,00,043,*7A
$GPRMC,163009.000,A,3246.5263,N,03501.6909,E,0.01,200.82,200509,,*09
$GPGGA,163010.000,3246.5263,N,03501.6909,E,1,04,2.4,155.2,M,18.6,M,,0000*57
$GPGSA,A,3,17,15,26,04,,,,,,,,,3.5,2.4,2.5*37
$GPGSV,3,1,12,15,61,261,32,17,60,078,41,26,42,308,35,04,07,143,33*7F
$GPGSV,3,2,12,27,43,321,30,28,33,047,36,09,22,310,24,08,21,101,34*77
$GPGSV,3,3,12,12,09,253,,10,02,205,,18,01,306,,11,00,043,*7A
$GPRMC,163010.000,A,3246.5263,N,03501.6909,E,0.01,114.61,200509,,*0A
$GPGGA,163011.000,3246.5264,N,03501.6909,E,1,04,2.4,155.2,M,18.6,M,,0000*51
$GPGSA,A,3,17,15,26,04,,,,,,,,,3.5,2.4,2.5*37
$GPGSV,3,1,12,15,61,261,32,17,60,078,41,26,42,308,35,04,07,143,33*7F
$GPGSV,3,2,12,27,43,321,30,28,33,047,36,09,22,310,24,08,21,101,34*77
$GPGSV,3,3,12,12,09,253,,10,02,205,,18,01,306,,11,00,043,*7A
$GPRMC,163011.000,A,3246.5264,N,03501.6909,E,0.03,357.76,200509,,*0D
$GPGGA,163012.000,3246.5264,N,03501.6909,E,1,04,2.4,155.3,M,18.6,M,,0000*53
$GPGSA,A,3,17,15,26,04,,,,,,,,,3.5,2.4,2.5*37
$GPGSV,3,1,12,15,61,261,32,17,60,078,41,26,42,308,35,04,07,143,33*7F
$GPGSV,3,2,12,27,43,321,30,28,33,047,36,09,22,310,24,08,21,101,34*77
$GPGSV,3,3,12,12,09,253,,10,02,205,,18,01,306,,11,00,043,*7A
$GPRMC,163012.000,A,3246.5264,N,03501.6909,E,0.01,25.11,200509,,*3B
$GPGGA,163013.000,3246.5264,N,03501.6909,E,1,04,2.4,155.3,M,18.6,M,,0000*52
$GPGSA,A,3,17,15,26,04,,,,,,,,,3.5,2.4,2.5*37
$GPGSV,3,1,12,15,61,261,32,17,60,078,40,26,42,308,34,04,07,143,33*7F
$GPGSV,3,2,12,27,43,321,30,28,33,047,36,09,22,310,25,08,21,101,34*76
$GPGSV,3,3,12,12,09,253,,10,02,205,,18,01,306,,11,00,043,*7A
$GPRMC,163013.000,A,3246.5264,N,03501.6909,E,0.03,357.76,200509,,*0F
$GPGGA,163014.000,3246.5264,N,03501.6909,E,1,04,2.4,155.4,M,18.6,M,,0000*52
$GPGSA,A,3,17,15,26,04,,,,,,,,,3.5,2.4,2.5*37
$GPGSV,3,1,12,15,61,261,32,17,60,078,40,26,42,308,34,04,07,143,33*7F
$GPGSV,3,2,12,27,43,321,30,28,33,047,36,09,22,310,25,08,21,101,34*76
$GPGSV,3,3,12,12,09,253,,10,02,205,,18,01,306,,11,00,043,*7A
$GPRMC,163014.000,A,3246.5264,N,03501.6909,E,0.03,68.43,200509,,*31
$GPGGA,163015.000,3246.5267,N,03501.6911,E,1,04,2.4,155.0,M,18.6,M,,0000*5D
$GPGSA,A,3,17,15,26,04,,,,,,,,,3.5,2.4,2.5*37
$GPGSV,3,1,12,15,61,261,31,17,60,078,40,26,42,308,34,04,07,143,33*7C
$GPGSV,3,2,12,27,43,321,30,28,33,047,36,09,22,310,25,08,21,101,34*76
$GPGSV,3,3,12,12,09,253,,10,02,205,,18,01,306,,11,00,043,*7A
$GPRMC,163015.000,A,3246.5267,N,03501.6911,E,0.35,39.33,200509,,*3C
$GPGGA,163016.000,3246.5271,N,03501.6913,E,1,04,2.4,154.3,M,18.6,M,,0000*59
$GPGSA,A,3,17,15,26,04,,,,,,,,,3.5,2.4,2.5*37
$GPGSV,3,1,12,15,61,261,31,17,60,078,35,26,42,308,34,04,07,143,33*7E
$GPGSV,3,2,12,27,43,321,30,28,33,047,36,09,22,310,23,08,21,101,34*70
$GPGSV,3,3,12,12,09,253,,10,02,205,,18,01,306,,11,00,043,*7A
$GPRMC,163016.000,A,3246.5271,N,03501.6913,E,0.48,36.87,200509,,*30
$GPGGA,163017.000,3246.5273,N,03501.6915,E,1,04,2.4,154.0,M,18.6,M,,0000*5F
$GPGSA,A,3,17,15,26,04,,,,,,,,,3.5,2.4,2.5*37
$GPGSV,3,1,12,15,61,261,31,17,60,078,35,26,42,308,34,04,07,143,33*7E
$GPGSV,3,2,12,27,43,321,30,28,33,047,36,09,22,310,30,08,21,101,30*76
$GPGSV,3,3,12,12,09,253,,10,02,205,,18,01,306,,11,00,043,*7A
$GPRMC,163017.000,A,3246.5273,N,03501.6915,E,0.30,17.94,200509,,*3B
$GPGGA,163018.000,3246.5276,N,03501.6916,E,1,04,2.4,154.2,M,18.6,M,,0000*54
$GPGSA,A,3,17,15,26,04,,,,,,,,,3.5,2.4,2.5*37
$GPGSV,3,1,12,15,61,261,32,17,60,078,35,26,42,308,34,04,07,143,31*7F
$GPGSV,3,2,12,27,43,321,28,28,33,047,36,09,22,310,27,08,21,101,28*70
$GPGSV,3,3,12,12,09,253,,10,02,205,,18,01,306,,11,00,043,*7A
$GPRMC,163018.000,A,3246.5276,N,03501.6916,E,0.21,26.27,200509,,*38
$GPGGA,163019.000,3246.5278,N,03501.6916,E,1,04,2.4,154.6,M,18.6,M,,0000*5F
$GPGSA,A,3,17,15,26,04,,,,,,,,,3.5,2.4,2.5*37
$GPGSV,3,1,12,15,61,261,32,17,60,078,35,26,42,308,34,04,07,143,27*78
$GPGSV,3,2,12,27,43,321,13,28,33,047,35,09,22,310,24,08,21,101,28*78
$GPGSV,3,3,12,12,09,253,,10,02,205,,18,01,306,,11,00,043,*7A
$GPRMC,163019.000,A,3246.5278,N,03501.6916,E,0.25,10.27,200509,,*36
$GPGGA,163020.000,3246.5281,N,03501.6917,E,1,04,2.4,155.1,M,18.6,M,,0000*54
$GPGSA,A,3,17,15,26,04,,,,,,,,,3.5,2.4,2.5*37
$GPGSV,3,1,12,15,61,261,32,17,60,078,35,26,42,308,34,04,07,143,26*79
$GPGSV,3,2,12,27,43,321,15,28,33,047,35,09,22,310,24,08,21,101,28*7E
$GPGSV,3,3,12,12,09,253,,10,02,205,,18,01,306,,11,00,043,*7A
$GPRMC,163020.000,A,3246.5281,N,03501.6917,E,0.17,10.69,200509,,*30
$GPGGA,163021.000,3246.5283,N,03501.6917,E,1,04,2.4,155.5,M,18.6,M,,0000*53
$GPGSA,A,3,17,15,26,04,,,,,,,,,3.5,2.4,2.5*37
$GPGSV,3,1,12,15,61,261,32,17,60,078,35,26,42,308,34,04,07,143,26*79
$GPGSV,3,2,12,27,43,321,15,28,33,047,35,09,22,310,24,08,21,101,28*7E
$GPGSV,3,3,12,12,09,253,,10,02,205,,18,01,306,,11,00,043,*7A
$GPRMC,163021.000,A,3246.5283,N,03501.6917,E,0.21,7.56,200509,,*0C
$GPGGA,163022.000,3246.5286,N,03501.6918,E,1,04,2.4,155.8,M,18.6,M,,0000*57
$GPGSA,A,3,17,15,26,04,,,,,,,,,3.5,2.4,2.5*37
$GPGSV,3,1,12,15,61,261,32,17,60,078,35,26,42,308,34,04,07,143,25*7A
$GPGSV,3,2,12,27,43,321,18,28,33,047,35,09,22,310,24,08,21,101,28*73
$GPGSV,3,3,12,12,09,253,,10,02,205,,18,01,306,,11,00,043,*7A
$GPRMC,163022.000,A,3246.5286,N,03501.6918,E,0.32,8.45,200509,,*0A
$GPGGA,163023.000,3246.5288,N,03501.6919,E,1,04,2.4,155.9,M,18.6,M,,0000*58
$GPGSA,A,3,17,15,26,04,,,,,,,,,3.5,2.4,2.5*37
$GPGSV,3,1,12,15,61,261,33,17,60,078,35,26,42,308,34,04,07,143,26*78
$GPGSV,3,2,12,27,43,321,19,28,33,047,35,09,22,310,24,08,21,101,29*73
$GPGSV,3,3,12,12,09,253,,10,02,205,,18,01,306,,11,00,043,*7A
$GPRMC,163023.000,A,3246.5288,N,03501.6919,E,0.12,40.03,200509,,*38
$GPGGA,163024.000,3246.5290,N,03501.6920,E,1,04,2.4,156.1,M,18.6,M,,0000*57
$GPGSA,A,3,17,15,26,04,,,,,,,,,3.5,2.4,2.5*37
$GPGSV,3,1,12,15,61,261,33,17,60,078,35,26,42,308,34,04,07,143,26*78
$GPGSV,3,2,12,27,43,321,17,28,33,047,35,09,22,310,20,08,21,101,29*79
$GPGSV,3,3,12,12,09,253,,10,02,205,,18,01,306,,11,00,043,*7A
$GPRMC,163024.000,A,3246.5290,N,03501.6920,E,0.13,24.81,200509,,*35
$GPGGA,163025.000,3246.5291,N,03501.6921,E,1,04,2.4,156.3,M,18.6,M,,0000*54
$GPGSA,A,3,17,15,26,04,,,,,,,,,3.5,2.4,2.5*37
$GPGSV,3,1,12,15,61,261,32,17,60,078,35,26,42,308,34,04,07,143,26*79
$GPGSV,3,2,12,27,43,321,17,28,33,047,35,09,22,310,23,08,21,101,29*7A
$GPGSV,3,3,12,12,09,253,,10,02,205,,18,01,306,,11,00,043,*7A
$GPRMC,163025.000,A,3246.5291,N,03501.6921,E,0.17,13.12,200509,,*3E
$GPGGA,163026.000,3246.5293,N,03501.6921,E,1,04,2.4,156.4,M,18.6,M,,0000*52
$GPGSA,A,3,17,15,26,04,,,,,,,,,3.5,2.4,2.5*37
$GPGSV,3,1,12,15,61,261,32,17,60,078,35,26,42,308,34,04,07,143,26*79
$GPGSV,3,2,12,27,43,321,18,28,33,047,35,09,22,310,23,08,21,101,29*75
$GPGSV,3,3,12,12,09,253,,10,02,205,,18,01,306,,11,00,043,*7A
$GPRMC,163026.000,A,3246.5293,N,03501.6921,E,0.15,13.07,200509,,*39
$GPGGA,163027.000,3246.5294,N,03501.6922,E,1,04,2.4,156.6,M,18.6,M,,0000*55
$GPGSA,A,3,17,15,26,04,,,,,,,,,3.5,2.4,2.5*37
$GPGSV,3,1,12,15,61,261,33,17,60,078,35,26,42,308,33,04,07,143,26*7F
$GPGSV,3,2,12,27,43,321,18,28,33,047,35,09,22,310,23,08,21,101,29*75
$GPGSV,3,3,12,12,09,253,,10,02,205,,18,01,306,,11,00,043,*7A
$GPRMC,163027.000,A,3246.5294,N,03501.6922,E,0.15,15.47,200509,,*3E
$GPGGA,163028.000,3246.5295,N,03501.6923,E,1,04,2.4,156.7,M,18.6,M,,0000*5B
$GPGSA,A,3,17,15,26,04,,,,,,,,,3.5,2.4,2.5*37
$GPGSV,3,1,12,15,61,261,33,17,60,078,35,26,42,308,33,04,07,143,27*7E
$GPGSV,3,2,12,27,43,321,19,28,33,047,35,09,22,310,22,08,21,101,29*75
$GPGSV,3,3,12,12,09,253,,10,02,205,,18,01,306,,11,00,043,*7A
$GPRMC,163028.000,A,3246.5295,N,03501.6923,E,0.13,16.50,200509,,*32
$GPGGA,163029.000,3246.5296,N,03501.6923,E,1,04,2.4,156.8,M,18.6,M,,0000*56
$GPGSA,A,3,17,15,26,04,,,,,,,,,3.5,2.4,2.5*37
$GPGSV,3,1,12,15,61,261,33,17,60,078,35,26,42,308,34,04,07,143,27*79
$GPGSV,3,2,12,27,43,321,19,28,33,047,35,09,22,310,16,08,21,101,29*72
$GPGSV,3,3,12,12,09,253,,10,02,205,,18,01,306,,11,00,043,*7A
$GPRMC,163029.000,A,3246.5296,N,03501.6923,E,0.13,17.69,200509,,*3B
$GPGGA,163030.000,3246.5297,N,03501.6924,E,1,04,2.4,156.8,M,18.6,M,,0000*58
$GPGSA,A,3,17,15,26,04,,,,,,,,,3.5,2.4,2.5*37
$GPGSV,3,1,12,15,61,261,33,17,60,078,35,26,42,308,34,04,07,143,27*79
$GPGSV,3,2,12,27,43,321,20,28,33,047,35,09,22,310,18,08,21,101,29*76
$GPGSV,3,3,12,12,09,253,,10,02,205,,18,01,306,,11,00,043,*7A
$GPRMC,163030.000,A,3246.5297,N,03501.6924,E,0.11,10.38,200509,,*34
$GPGGA,163031.000,3246.5298,N,03501.6924,E,1,04,2.4,156.9,M,18.6,M,,0000*57
$GPGSA,A,3,17,15,26,04,,,,,,,,,3.5,2.4,2.5*37
$GPGSV,3,1,12,15,61,261,33,17,60,078,35,26,42,308,33,04,07,143,27*7E
$GPGSV,3,2,12,27,43,321,20,28,33,047,35,09,22,310,19,08,21,101,29*77
$GPGSV,3,3,12,12,09,253,,10,02,205,,18,01,306,,11,00,043,*7A
$GPRMC,163031.000,A,3246.5298,N,03501.6924,E,0.12,28.63,200509,,*3C
$GPGGA,163032.000,3246.5298,N,03501.6924,E,1,04,2.4,157.0,M,18.6,M,,0000*5C
$GPGSA,A,3,17,15,26,04,,,,,,,,,3.5,2.4,2.5*37
$GPGSV,3,1,12,15,61,261,33,17,60,078,35,26,42,308,34,04,07,143,27*79
$GPGSV,3,2,12,27,43,321,20,28,33,047,35,09,22,310,20,08,21,101,29*7D
$GPGSV,3,3,12,12,09,253,,10,02,205,,18,01,306,,11,00,043,*7A
$GPRMC,163032.000,A,3246.5298,N,03501.6924,E,0.09,6.14,200509,,*09
$GPGGA,163033.000,3246.5301,N,03501.6926,E,1,05,1.5,156.7,M,18.6,M,,0000*5B
$GPGSA,A,3,17,15,26,04,28,,,,,,,,2.6,1.5,2.2*3A
$GPGSV,3,1,12,15,61,261,33,17,60,078,35,26,42,308,34,04,07,143,27*79
$GPGSV,3,2,12,27,43,321,20,28,33,047,35,09,22,310,21,08,21,101,29*7C
$GPGSV,3,3,12,12,09,253,,10,02,205,,18,01,306,,11,00,043,*7A
$GPRMC,163033.000,A,3246.5301,N,03501.6926,E,0.07,12.06,200509,,*33
$GPGGA,163034.000,3246.5302,N,03501.6927,E,1,05,1.5,156.6,M,18.6,M,,0000*5F
$GPGSA,A,3,17,15,26,04,28,,,,,,,,2.6,1.5,2.2*3A
$GPGSV,3,1,12,15,61,261,32,17,60,078,36,27,44,321,20,26,42,307,34*73
$GPGSV,3,2,12,28,32,047,35,09,23,310,28,08,21,101,29,12,09,253,*7B
$GPGSV,3,3,12,04,07,143,27,10,02,205,,18,01,306,,11,00,043,*74
$GPRMC,163034.000,A,3246.5302,N,03501.6927,E,0.07,349.78,200509,,*02
$GPGGA,163035.000,3246.5302,N,03501.6927,E,1,05,1.5,156.6,M,18.6,M,,0000*5E
$GPGSA,A,3,17,15,26,04,28,,,,,,,,2.6,1.5,2.2*3A
$GPGSV,3,1,12,15,61,261,32,17,60,078,36,27,44,321,21,26,42,307,34*72
$GPGSV,3,2,12,28,32,047,35,09,23,310,28,08,21,101,29,12,09,253,*7B
$GPGSV,3,3,12,04,07,143,27,10,02,205,,18,01,306,,11,00,043,*74
$GPRMC,163035.000,A,3246.5302,N,03501.6927,E,0.03,24.94,200509,,*3D
$GPGGA,163036.000,3246.5303,N,03501.6928,E,1,05,1.5,156.6,M,18.6,M,,0000*53
$GPGSA,A,3,17,15,26,04,28,,,,,,,,2.6,1.5,2.2*3A
$GPGSV,3,1,12,15,61,261,32,17,60,078,36,27,44,321,24,26,42,307,34*77
$GPGSV,3,2,12,28,32,047,35,09,23,310,27,08,21,101,29,12,09,253,*74
$GPGSV,3,3,12,04,07,143,27,10,02,205,,18,01,306,,11,00,043,*74
$GPRMC,163036.000,A,3246.5303,N,03501.6928,E,0.09,2.14,200509,,*06
$GPGGA,163037.000,3246.5303,N,03501.6928,E,1,05,1.5,156.7,M,18.6,M,,0000*53
$GPGSA,A,3,17,15,26,04,28,,,,,,,,2.6,1.5,2.2*3A
$GPGSV,3,1,12,15,61,261,32,17,60,078,36,27,44,321,22,26,42,307,34*71
$GPGSV,3,2,12,28,32,047,35,09,23,310,15,08,21,101,29,12,09,253,*75
$GPGSV,3,3,12,04,07,143,27,10,02,205,,18,01,306,,11,00,043,*74
$GPRMC,163037.000,A,3246.5303,N,03501.6928,E,0.05,345.44,200509,,*0E
$GPGGA,163038.000,3246.5303,N,03501.6928,E,1,05,1.5,156.7,M,18.6,M,,0000*5C
$GPGSA,A,3,17,15,26,04,28,,,,,,,,2.6,1.5,2.2*3A
$GPGSV,3,1,12,15,61,261,32,17,60,078,36,27,44,321,22,26,42,307,34*71
$GPGSV,3,2,12,28,32,047,35,09,23,310,18,08,21,101,29,12,09,253,*78
$GPGSV,3,3,12,04,07,143,27,10,02,205,,18,01,306,,11,00,043,*74
$GPRMC,163038.000,A,3246.5303,N,03501.6928,E,0.02,344.97,200509,,*09
$GPGGA,163039.000,3246.5304,N,03501.6928,E,1,05,1.5,156.8,M,18.6,M,,0000*55
$GPGSA,A,3,17,15,26,04,28,,,,,,,,2.6,1.5,2.2*3A
$GPGSV,3,1,12,15,61,261,32,17,60,078,36,27,44,321,22,26,42,307,34*71
$GPGSV,3,2,12,28,32,047,35,09,23,310,20,08,21,101,29,12,09,253,*73
$GPGSV,3,3,12,04,07,143,27,10,02,205,,18,01,306,,11,00,043,*74
$GPRMC,163039.000,A,3246.5304,N,03501.6928,E,0.05,345.09,200509,,*0E
$GPGGA,163040.000,3246.5304,N,03501.6928,E,1,05,1.5,156.8,M,18.6,M,,0000*5B
$GPGSA,A,3,17,15,26,04,28,,,,,,,,2.6,1.5,2.2*3A
$GPGSV,3,1,12,15,61,261,32,17,60,078,36,27,44,321,22,26,42,307,34*71
$GPGSV,3,2,12,28,32,047,35,09,23,310,27,08,21,101,29,12,09,253,*74
$GPGSV,3,3,12,04,07,143,27,10,02,205,,18,01,306,,11,00,043,*74
$GPRMC,163040.000,A,3246.5304,N,03501.6928,E,0.01,20.34,200509,,*3A
$GPGGA,163041.000,3246.5303,N,03501.6928,E,1,05,1.5,156.9,M,18.6,M,,0000*5C
$GPGSA,A,3,17,15,26,04,28,,,,,,,,2.6,1.5,2.2*3A
$GPGSV,3,1,12,15,61,261,32,17,60,078,36,27,44,321,22,26,42,307,34*71
$GPGSV,3,2,12,28,32,047,35,09,23,310,27,08,21,101,29,12,09,253,*74
$GPGSV,3,3,12,04,07,143,27,10,02,205,,18,01,306,,11,00,043,*74
$GPRMC,163041.000,A,3246.5303,N,03501.6928,E,0.03,354.40,200509,,*0D
$GPGGA,163042.000,3246.5303,N,03501.6928,E,1,05,1.5,156.9,M,18.6,M,,0000*5F
$GPGSA,A,3,17,15,26,04,28,,,,,,,,2.6,1.5,2.2*3A
$GPGSV,3,1,12,15,61,261,32,17,60,078,36,27,44,321,23,26,42,307,34*70
$GPGSV,3,2,12,28,32,047,35,09,23,310,26,08,21,101,29,12,09,253,*75
$GPGSV,3,3,12,04,07,143,27,10,02,205,,18,01,306,,11,00,043,*74
$GPRMC,163042.000,A,3246.5303,N,03501.6928,E,0.05,336.94,200509,,*05
$GPGGA,163043.000,3246.5303,N,03501.6929,E,1,05,1.5,156.9,M,18.6,M,,0000*5F
$GPGSA,A,3,17,15,26,04,28,,,,,,,,2.6,1.5,2.2*3A
$GPGSV,3,1,12,15,61,261,32,17,60,078,36,27,44,321,23,26,42,307,34*70
$GPGSV,3,2,12,28,32,047,35,09,23,310,26,08,21,101,29,12,09,253,*75
$GPGSV,3,3,12,04,07,143,27,10,02,205,,18,01,306,,11,00,043,*74
$GPRMC,163043.000,A,3246.5303,N,03501.6929,E,0.03,31.18,200509,,*33
$GPGGA,163044.000,3246.5303,N,03501.6929,E,1,05,1.5,157.0,M,18.6,M,,0000*50
$GPGSA,A,3,17,15,26,04,28,,,,,,,,2.6,1.5,2.2*3A
$GPGSV,3,1,12,15,61,261,31,17,60,078,36,27,44,321,23,26,42,307,34*73
$GPGSV,3,2,12,28,32,047,35,09,23,310,26,08,21,101,29,12,09,253,*75
$GPGSV,3,3,12,04,07,143,27,10,02,205,,18,01,306,,11,00,043,*74
$GPRMC,163044.000,A,3246.5303,N,03501.6929,E,0.07,348.43,200509,,*03
$GPGGA,163045.000,3246.5303,N,03501.6929,E,1,05,1.5,157.0,M,18.6,M,,0000*51
$GPGSA,A,3,17,15,26,04,28,,,,,,,,2.6,1.5,2.2*3A
$GPGSV,3,1,12,15,61,261,31,17,60,078,36,27,44,321,23,26,42,307,34*73
$GPGSV,3,2,12,28,32,047,35,09,23,310,25,08,21,101,29,12,09,253,*76
$GPGSV,3,3,12,04,07,143,27,10,02,205,,18,01,306,,11,00,043,*74
$GPRMC,163045.000,A,3246.5303,N,03501.6929,E,0.02,320.64,200509,,*0C
$GPGGA,163046.000,3246.5303,N,03501.6929,E,1,05,1.5,157.1,M,18.6,M,,0000*53
$GPGSA,A,3,17,15,26,04,28,,,,,,,,2.6,1.5,2.2*3A
$GPGSV,3,1,12,15,61,261,31,17,60,078,36,27,44,321,23,26,42,307,34*73
$GPGSV,3,2,12,28,32,047,35,09,23,310,25,08,21,101,29,12,09,253,*76
$GPGSV,3,3,12,04,07,143,27,10,02,205,,18,01,306,,11,00,043,*74
$GPRMC,163046.000,A,3246.5303,N,03501.6929,E,0.03,90.86,200509,,*3A
$GPGGA,163047.000,3246.5302,N,03501.6929,E,1,05,1.5,157.0,M,18.6,M,,0000*52
$GPGSA,A,3,17,15,26,04,28,,,,,,,,2.6,1.5,2.2*3A
$GPGSV,3,1,12,15,61,261,31,17,60,078,36,27,44,321,23,26,42,307,34*73
$GPGSV,3,2,12,28,32,047,35,09,23,310,25,08,21,101,29,12,09,253,*76
$GPGSV,3,3,12,04,07,143,27,10,02,205,,18,01,306,,11,00,043,*74
$GPRMC,163047.000,A,3246.5302,N,03501.6929,E,0.04,339.56,200509,,*00
$GPGGA,163048.000,3246.5301,N,03501.6929,E,1,05,1.5,157.0,M,18.6,M,,0000*5E
$GPGSA,A,3,17,15,26,04,28,,,,,,,,2.6,1.5,2.2*3A
$GPGSV,3,1,12,15,61,261,31,17,60,078,36,27,44,321,23,26,42,307,34*73
$GPGSV,3,2,12,28,32,047,35,09,23,310,25,08,21,101,29,12,09,253,*76
$GPGSV,3,3,12,04,07,143,26,10,02,205,,18,01,306,,11,00,043,*75
$GPRMC,163048.000,A,3246.5301,N,03501.6929,E,0.02,15.18,200509,,*3D
$GPGGA,163049.000,3246.5301,N,03501.6929,E,1,05,1.5,157.0,M,18.6,M,,0000*5F
$GPGSA,A,3,17,15,26,04,28,,,,,,,,2.6,1.5,2.2*3A
$GPGSV,3,1,12,15,61,261,31,17,60,078,36,27,44,321,23,26,42,307,34*73
$GPGSV,3,2,12,28,32,047,35,09,23,310,25,08,21,101,29,12,09,253,*76
$GPGSV,3,3,12,04,07,143,26,10,02,205,,18,01,306,,11,00,043,*75
$GPRMC,163049.000,A,3246.5301,N,03501.6929,E,0.01,235.27,200509,,*03
$GPGGA,163050.000,3246.5301,N,03501.6929,E,1,05,1.5,157.1,M,18.6,M,,0000*56
$GPGSA,A,3,17,15,26,04,28,,,,,,,,2.6,1.5,2.2*3A
$GPGSV,3,1,12,15,61,261,31,17,60,078,36,27,44,321,23,26,42,307,34*73
$GPGSV,3,2,12,28,32,047,35,09,23,310,25,08,21,101,29,12,09,253,*76
$GPGSV,3,3,12,04,07,143,26,10,02,205,,18,01,306,,11,00,043,*75
$GPRMC,163050.000,A,3246.5301,N,03501.6929,E,0.01,243.15,200509,,*0B
$GPGGA,163051.000,3246.5300,N,03501.6929,E,1,06,1.4,157.0,M,18.6,M,,0000*55
$GPGSA,A,3,17,15,26,04,28,08,,,,,,,2.6,1.4,2.2*33
$GPGSV,3,1,12,15,61,261,31,17,60,078,36,27,44,321,23,26,42,307,35*72
$GPGSV,3,2,12,28,32,047,35,09,23,310,25,08,21,101,29,12,09,253,*76
$GPGSV,3,3,12,04,07,143,26,10,02,205,,18,01,306,,11,00,043,*75
$GPRMC,163051.000,A,3246.5300,N,03501.6929,E,0.05,54.64,200509,,*3D
$GPGGA,163052.000,3246.5299,N,03501.6930,E,1,06,1.4,156.9,M,18.6,M,,0000*57
$GPGSA,A,3,17,15,26,04,28,08,,,,,,,2.6,1.4,2.2*33
$GPGSV,3,1,12,15,61,260,31,17,60,078,36,27,44,321,22,26,42,307,35*72
$GPGSV,3,2,12,28,32,047,35,09,23,310,25,08,21,101,29,12,09,254,*71
$GPGSV,3,3,12,04,07,143,27,10,02,205,,18,01,306,,11,00,043,*74
$GPRMC,163052.000,A,3246.5299,N,03501.6930,E,0.03,96.40,200509,,*39
$GPGGA,163053.000,3246.5299,N,03501.6930,E,1,06,1.4,156.8,M,18.6,M,,0000*57
$GPGSA,A,3,17,15,26,04,28,08,,,,,,,2.6,1.4,2.2*33
$GPGSV,3,1,12,15,61,260,31,17,60,078,36,27,44,321,18,26,42,307,35*7B
$GPGSV,3,2,12,28,32,047,35,09,23,310,25,08,21,101,29,12,09,254,*71
$GPGSV,3,3,12,04,07,143,27,10,02,205,,18,01,306,,11,00,043,*74
$GPRMC,163053.000,A,3246.5299,N,03501.6930,E,0.03,121.94,200509,,*0C
$GPGGA,163054.000,3246.5298,N,03501.6931,E,1,06,1.4,156.7,M,18.6,M,,0000*5F
$GPGSA,A,3,17,15,26,04,28,08,,,,,,,2.6,1.4,2.2*33
$GPGSV,3,1,12,15,61,260,31,17,60,078,36,27,44,321,17,26,42,307,35*74
$GPGSV,3,2,12,28,32,047,35,09,23,310,25,08,21,101,29,12,09,254,*71
$GPGSV,3,3,12,04,07,143,27,10,02,205,,18,01,306,,11,00,043,*74
$GPRMC,163054.000,A,3246.5298,N,03501.6931,E,0.03,59.80,200509,,*30
$GPGGA,163055.000,3246.5297,N,03501.6931,E,1,06,1.4,156.7,M,18.6,M,,0000*51
$GPGSA,A,3,17,15,26,04,28,08,,,,,,,2.6,1.4,2.2*33
$GPGSV,3,1,12,15,61,260,31,17,60,078,36,27,44,321,17,26,42,307,35*74
$GPGSV,3,2,12,28,32,047,35,09,23,310,25,08,21,101,29,12,09,254,*71
$GPGSV,3,3,12,04,07,143,27,10,02,205,,18,01,306,,11,00,043,*74
$GPRMC,163055.000,A,3246.5297,N,03501.6931,E,0.02,120.20,200509,,*0A
$GPGGA,163056.000,3246.5296,N,03501.6931,E,1,06,1.4,156.6,M,18.6,M,,0000*52
$GPGSA,A,3,17,15,26,04,28,08,,,,,,,2.6,1.4,2.2*33
$GPGSV,3,1,12,15,61,260,31,17,60,078,36,27,44,321,17,26,42,307,35*74
$GPGSV,3,2,12,28,32,047,35,09,23,310,25,08,21,101,29,12,09,254,*71
$GPGSV,3,3,12,04,07,143,26,10,02,205,,18,01,306,,11,00,043,*75
$GPRMC,163056.000,A,3246.5296,N,03501.6931,E,0.02,84.66,200509,,*35
$GPGGA,163057.000,3246.5296,N,03501.6931,E,1,06,1.4,156.5,M,18.6,M,,0000*50
$GPGSA,A,3,17,15,26,04,28,08,,,,,,,2.6,1.4,2.2*33
$GPGSV,3,1,12,15,61,260,31,17,60,078,36,27,44,321,16,26,42,307,35*75
$GPGSV,3,2,12,28,32,047,35,09,23,310,25,08,21,101,29,12,09,254,*71
$GPGSV,3,3,12,04,07,143,26,10,02,205,,18,01,306,,11,00,043,*75
$GPRMC,163057.000,A,3246.5296,N,03501.6931,E,0.03,127.67,200509,,*0C
$GPGGA,163058.000,3246.5295,N,03501.6931,E,1,06,1.4,156.5,M,18.6,M,,0000*5C
$GPGSA,A,3,17,15,26,04,28,08,,,,,,,2.6,1.4,2.2*33
$GPGSV,3,1,12,15,61,260,31,17,60,078,36,27,44,321,16,26,42,307,35*75
$GPGSV,3,2,12,28,32,047,35,09,23,310,25,08,21,101,29,12,09,254,*71
$GPGSV,3,3,12,04,07,143,26,10,02,205,,18,01,306,,11,00,043,*75
$GPRMC,163058.000,A,3246.5295,N,03501.6931,E,0.05,53.65,200509,,*36
$GPGGA,163059.000,3246.5295,N,03501.6932,E,1,06,1.4,156.4,M,18.6,M,,0000*5F
$GPGSA,A,3,17,15,26,04,28,08,,,,,,,2.6,1.4,2.2*33
$GPGSV,3,1,12,15,61,260,31,17,60,078,36,27,44,321,16,26,42,307,34*74
$GPGSV,3,2,12,28,32,047,35,09,23,310,25,08,21,101,29,12,09,254,*71
$GPGSV,3,3,12,04,07,143,26,10,02,205,,18,01,306,,11,00,043,*75
$GPRMC,163059.000,A,3246.5295,N,03501.6932,E,0.02,86.24,200509,,*3E
$GPGGA,163100.000,3246.5294,N,03501.6932,E,1,06,1.4,156.3,M,18.6,M,,0000*54
$GPGSA,A,3,17,15,26,04,28,08,,,,,,,2.6,1.4,2.2*33
$GPGSV,3,1,12,15,61,260,31,17,60,078,36,27,44,321,16,26,42,307,34*74
$GPGSV,3,2,12,28,32,047,34,09,23,310,25,08,21,101,29,12,09,254,*70
$GPGSV,3,3,12,04,07,143,27,10,02,205,,18,01,306,,11,00,043,*74
$GPRMC,163100.000,A,3246.5294,N,03501.6932,E,0.04,45.32,200509,,*3C
$GPGGA,163101.000,3246.5294,N,03501.6932,E,1,06,1.4,156.2,M,18.6,M,,0000*54
$GPGSA,A,3,17,15,26,04,28,08,,,,,,,2.6,1.4,2.2*33
$GPGSV,3,1,12,15,61,260,31,17,60,078,36,27,44,321,17,26,42,307,35*74
$GPGSV,3,2,12,28,32,047,34,09,23,310,25,08,21,101,29,12,09,254,*70
$GPGSV,3,3,12,04,07,143,27,10,02,205,,18,01,306,,11,00,043,*74
$GPRMC,163101.000,A,3246.5294,N,03501.6932,E,0.04,69.44,200509,,*32
$GPGGA,163102.000,3246.5293,N,03501.6932,E,1,06,1.4,156.1,M,18.6,M,,0000*53
$GPGSA,A,3,17,15,26,04,28,08,,,,,,,2.6,1.4,2.2*33
$GPGSV,3,1,12,15,61,260,31,17,60,078,36,27,44,321,16,26,42,307,35*75
$GPGSV,3,2,12,28,32,047,34,09,23,310,24,08,21,101,29,12,09,254,*71
$GPGSV,3,3,12,04,07,143,27,10,02,205,,18,01,306,,11,00,043,*74
$GPRMC,163102.000,A,3246.5293,N,03501.6932,E,0.01,58.13,200509,,*33
$GPGGA,163103.000,3246.5293,N,03501.6932,E,1,06,1.4,156.1,M,18.6,M,,0000*52
$GPGSA,A,3,17,15,26,04,28,08,,,,,,,2.6,1.4,2.2*33
$GPGSV,3,1,12,15,61,260,31,17,60,078,36,27,44,321,17,26,42,307,35*74
$GPGSV,3,2,12,28,32,047,34,09,23,310,24,08,21,101,29,12,09,254,*71
$GPGSV,3,3,12,04,07,143,27,10,02,205,,18,01,306,,11,00,043,*74
$GPRMC,163103.000,A,3246.5293,N,03501.6932,E,0.04,102.87,200509,,*04
$GPGGA,163104.000,3246.5292,N,03501.6932,E,1,06,1.4,156.0,M,18.6,M,,0000*55
$GPGSA,A,3,17,15,26,04,28,08,,,,,,,2.6,1.4,2.2*33
$GPGSV,3,1,12,15,61,260,31,17,60,078,37,27,44,321,17,26,42,307,35*75
$GPGSV,3,2,12,28,32,047,34,09,23,310,24,08,21,101,29,12,09,254,*71
$GPGSV,3,3,12,04,07,143,27,10,02,205,,18,01,306,,11,00,043,*74
$GPRMC,163104.000,A,3246.5292,N,03501.6932,E,0.02,74.33,200509,,*3B
$GPGGA,163105.000,3246.5292,N,03501.6932,E,1,06,1.4,155.9,M,18.6,M,,0000*5E
$GPGSA,A,3,17,15,26,04,28,08,,,,,,,2.6,1.4,2.2*33
$GPGSV,3,1,12,15,61,260,32,17,60,078,37,27,44,321,17,26,42,307,35*76
$GPGSV,3,2,12,28,32,047,34,09,23,310,24,08,21,101,29,12,09,254,*71
$GPGSV,3,3,12,04,07,143,27,10,02,205,,18,01,306,,11,00,043,*74
$GPRMC,163105.000,A,3246.5292,N,03501.6932,E,0.16,13.70,200509,,*39
$GPGGA,163106.000,3246.5294,N,03501.6932,E,1,06,1.4,155.8,M,18.6,M,,0000*5A
$GPGSA,A,3,17,15,26,04,28,08,,,,,,,2.6,1.4,2.2*33
$GPGSV,3,1,12,15,61,260,32,17,60,078,37,27,44,321,17,26,42,307,35*76
$GPGSV,3,2,12,28,32,047,34,09,23,310,24,08,21,101,29,12,09,254,*71
$GPGSV,3,3,12,04,07,143,27,10,02,205,,18,01,306,,11,00,043,*74
$GPRMC,163106.000,A,3246.5294,N,03501.6932,E,1.15,6.38,200509,,*06
$GPGGA,163107.000,3246.5297,N,03501.6933,E,1,06,1.4,155.7,M,18.6,M,,0000*56
$GPGSA,A,3,17,15,26,04,28,08,,,,,,,2.6,1.4,2.2*33
$GPGSV,3,1,12,15,61,260,32,17,60,078,37,27,44,321,19,26,42,307,34*79
$GPGSV,3,2,12,28,32,047,34,09,23,310,24,08,21,101,29,12,09,254,*71
$GPGSV,3,3,12,04,07,143,27,10,02,205,,18,01,306,,11,00,043,*74
$GPRMC,163107.000,A,3246.5297,N,03501.6933,E,1.80,16.41,200509,,*36
$GPGGA,163108.000,3246.5302,N,03501.6937,E,1,06,1.4,155.6,M,18.6,M,,0000*51
$GPGSA,A,3,17,15,26,04,28,08,,,,,,,2.6,1.4,2.2*33
$GPGSV,3,1,12,15,61,260,32,17,60,078,36,27,44,321,21,26,42,307,34*73
$GPGSV,3,2,12,28,32,047,29,09,23,310,24,08,21,101,29,12,09,254,*7D
$GPGSV,3,3,12,04,07,143,21,10,02,205,,18,01,306,,11,00,043,*72
$GPRMC,163108.000,A,3246.5302,N,03501.6937,E,1.93,43.09,200509,,*3E
$GPGGA,163109.000,3246.5308,N,03501.6946,E,1,06,1.4,155.2,M,18.6,M,,0000*58
$GPGSA,A,3,17,15,26,04,28,08,,,,,,,2.6,1.4,2.2*33
$GPGSV,3,1,12,15,61,260,32,17,60,078,28,27,44,321,25,26,42,307,34*78
$GPGSV,3,2,12,28,32,047,25,09,23,310,24,08,21,101,29,12,09,254,*71
$GPGSV,3,3,12,04,07,143,21,10,02,205,,18,01,306,,11,00,043,*72
$GPRMC,163109.000,A,3246.5308,N,03501.6946,E,2.94,71.20,200509,,*3D
$GPGGA,163110.000,3246.5310,N,03501.6962,E,1,06,1.4,155.7,M,18.6,M,,0000*5A
$GPGSA,A,3,17,15,26,04,28,08,,,,,,,2.6,1.4,2.2*33
$GPGSV,3,1,12,15,61,260,30,17,60,078,29,27,44,321,35,26,42,307,27*78
$GPGSV,3,2,12,28,32,047,24,09,23,310,24,08,21,101,30,12,09,254,*78
$GPGSV,3,3,12,04,07,143,23,10,02,205,,18,01,306,,11,00,043,*70
$GPRMC,163110.000,A,3246.5310,N,03501.6962,E,4.74,75.18,200509,,*3D
$GPGGA,163111.000,3246.5311,N,03501.6977,E,1,06,1.4,156.1,M,18.6,M,,0000*5B
$GPGSA,A,3,17,15,26,04,28,08,,,,,,,2.6,1.4,2.2*33
$GPGSV,3,1,12,15,61,260,31,17,60,078,30,27,44,321,35,26,42,307,27*71
$GPGSV,3,2,12,28,32,047,14,09,23,310,24,08,21,101,35,12,09,254,*7E
$GPGSV,3,3,12,04,07,143,23,10,02,205,,18,01,306,,11,00,043,*70
$GPRMC,163111.000,A,3246.5311,N,03501.6977,E,4.93,73.17,200509,,*39
$GPGGA,163112.000,3246.5322,N,03501.6992,E,1,06,1.4,155.9,M,18.6,M,,0000*58
$GPGSA,A,3,17,15,26,04,28,08,,,,,,,2.6,1.4,2.2*33
$GPGSV,3,1,12,15,61,260,29,17,60,078,30,27,44,321,35,26,42,307,29*76
$GPGSV,3,2,12,28,32,047,15,09,23,310,26,08,21,101,35,12,09,254,*7D
$GPGSV,3,3,12,04,07,143,24,10,02,205,,18,01,306,,11,00,043,*77
$GPRMC,163112.000,A,3246.5322,N,03501.6992,E,5.02,49.36,200509,,*32
$GPGGA,163113.000,3246.5339,N,03501.7003,E,1,06,1.4,155.4,M,18.6,M,,0000*5E
$GPGSA,A,3,17,15,26,04,28,08,,,,,,,2.6,1.4,2.2*33
$GPGSV,3,1,12,15,61,260,29,17,60,078,30,27,44,321,35,26,42,307,31*7F
$GPGSV,3,2,12,28,32,047,18,09,23,310,32,08,21,101,33,12,09,254,*73
$GPGSV,3,3,12,04,07,143,24,10,02,205,,18,01,306,,11,00,043,*77
$GPRMC,163113.000,A,3246.5339,N,03501.7003,E,5.54,21.14,200509,,*34
$GPGGA,163114.000,3246.5353,N,03501.7006,E,1,06,1.4,156.2,M,18.6,M,,0000*55
$GPGSA,A,3,17,15,26,04,28,08,,,,,,,2.6,1.4,2.2*33
$GPGSV,3,1,12,15,61,260,32,17,60,078,29,27,44,321,34,26,42,307,31*7C
$GPGSV,3,2,12,28,32,047,27,09,23,310,31,08,21,101,27,12,09,254,*79
$GPGSV,3,3,12,04,07,143,24,10,02,205,,18,01,306,,11,00,043,*77
$GPRMC,163114.000,A,3246.5353,N,03501.7006,E,5.30,1.37,200509,,*0B
$GPGGA,163115.000,3246.5366,N,03501.7005,E,1,06,1.4,156.5,M,18.6,M,,0000*56
$GPGSA,A,3,17,15,26,04,28,08,,,,,,,2.6,1.4,2.2*33
$GPGSV,3,1,12,15,61,260,31,17,60,078,24,27,44,321,26,26,42,307,31*71
$GPGSV,3,2,12,28,32,047,28,09,23,310,20,08,21,101,26,12,09,254,*77
$GPGSV,3,3,12,04,07,143,25,10,02,205,,18,01,306,,11,00,043,*76
$GPRMC,163115.000,A,3246.5366,N,03501.7005,E,4.20,359.75,200509,,*07
$GPGGA,163116.000,3246.5376,N,03501.7005,E,1,06,1.4,156.5,M,18.6,M,,0000*54
$GPGSA,A,3,17,15,26,04,28,08,,,,,,,2.6,1.4,2.2*33
$GPGSV,3,1,12,15,61,260,26,17,60,078,25,27,44,321,24,26,42,307,31*74
$GPGSV,3,2,12,28,32,047,29,09,23,310,14,08,21,101,25,12,09,254,*72
$GPGSV,3,3,12,04,07,143,28,10,02,205,,18,01,306,,11,00,043,*7B
$GPRMC,163116.000,A,3246.5376,N,03501.7005,E,2.00,0.84,200509,,*00
$GPGGA,163117.000,3246.5379,N,03501.7006,E,1,06,1.4,156.4,M,18.6,M,,0000*58
$GPGSA,A,3,17,15,26,04,28,08,,,,,,,2.6,1.4,2.2*33
$GPGSV,3,1,12,15,61,260,25,17,60,078,23,27,44,321,26,26,42,307,31*73
$GPGSV,3,2,12,28,32,047,30,09,23,310,10,08,21,101,24,12,09,254,*7F
$GPGSV,3,3,12,04,07,143,29,10,02,205,,18,01,306,,11,00,043,*7A
$GPRMC,163117.000,A,3246.5379,N,03501.7006,E,0.29,63.40,200509,,*39
$GPGGA,163118.000,3246.5383,N,03501.7007,E,1,06,1.4,155.8,M,18.6,M,,0000*5C
$GPGSA,A,3,17,15,26,04,28,08,,,,,,,2.6,1.4,2.2*33
$GPGSV,3,1,12,15,61,260,25,17,60,078,22,27,44,321,26,26,42,307,31*72
$GPGSV,3,2,12,28,32,047,30,09,23,310,,08,21,101,24,12,09,254,*7E
$GPGSV,3,3,12,04,07,143,29,10,02,205,,18,01,306,,11,00,043,*7A
$GPRMC,163118.000,A,3246.5383,N,03501.7007,E,0.27,111.84,200509,,*00
$GPGGA,163119.000,3246.5385,N,03501.7008,E,1,06,1.4,155.1,M,18.6,M,,0000*5D
$GPGSA,A,3,17,15,26,04,28,08,,,,,,,2.6,1.4,2.2*33
$GPGSV,3,1,12,15,61,260,25,17,60,078,22,27,44,321,26,26,42,307,31*72
$GPGSV,3,2,12,28,32,047,29,09,23,310,,08,21,101,24,12,09,254,*76
$GPGSV,3,3,12,04,07,143,28,10,02,205,,18,01,306,,11,00,043,*7B
$GPRMC,163119.000,A,3246.5385,N,03501.7008,E,0.32,89.49,200509,,*3D
$GPGGA,163120.000,3246.5388,N,03501.7009,E,1,06,1.4,154.3,M,18.6,M,,0000*58
$GPGSA,A,3,17,15,26,04,28,08,,,,,,,2.6,1.4,2.2*33
$GPGSV,3,1,12,15,61,260,25,17,60,078,22,27,44,321,26,26,42,307,31*72
$GPGSV,3,2,12,28,32,047,29,09,23,310,,08,21,101,24,12,09,254,*76
$GPGSV,3,3,12,04,07,143,28,10,02,205,,18,01,306,,11,00,043,*7B
$GPRMC,163120.000,A,3246.5388,N,03501.7009,E,0.15,51.01,200509,,*37
$GPGGA,163121.000,3246.5390,N,03501.7009,E,1,06,1.4,153.5,M,18.6,M,,0000*51
$GPGSA,A,3,17,15,26,04,28,08,,,,,,,2.6,1.4,2.2*33
$GPGSV,3,1,12,15,61,260,26,17,60,078,22,27,44,321,26,26,42,307,31*71
$GPGSV,3,2,12,28,32,047,29,09,23,310,,08,21,101,24,12,09,254,*76
$GPGSV,3,3,12,04,07,143,27,10,02,205,,18,01,306,,11,00,043,*74
$GPRMC,163121.000,A,3246.5390,N,03501.7009,E,0.19,337.93,200509,,*0B
$GPGGA,163122.000,3246.5393,N,03501.7007,E,1,06,1.4,152.4,M,18.6,M,,0000*5F
$GPGSA,A,3,17,15,26,04,28,08,,,,,,,2.6,1.4,2.2*33
$GPGSV,3,1,12,15,61,260,26,17,60,078,22,27,44,321,26,26,42,307,31*71
$GPGSV,3,2,12,28,32,047,29,09,23,310,,08,21,101,24,12,09,254,*76
$GPGSV,3,3,12,04,07,143,27,10,02,205,,18,01,306,,11,00,043,*74
$GPRMC,163122.000,A,3246.5393,N,03501.7007,E,0.15,337.47,200509,,*00
$GPGGA,163123.000,3246.5395,N,03501.7005,E,1,06,1.4,151.1,M,18.6,M,,0000*5C
$GPGSA,A,3,17,15,26,04,28,08,,,,,,,2.6,1.4,2.2*33
$GPGSV,3,1,12,15,61,260,26,17,60,078,22,27,44,321,26,26,42,307,31*71
$GPGSV,3,2,12,28,32,047,29,09,23,310,,08,21,101,24,12,09,254,*76
$GPGSV,3,3,12,04,07,143,27,10,02,205,,18,01,306,,11,00,043,*74
$GPRMC,163123.000,A,3246.5395,N,03501.7005,E,0.37,303.53,200509,,*07
$GPGGA,163124.000,3246.5397,N,03501.7004,E,1,06,1.4,150.2,M,18.6,M,,0000*5A
$GPGSA,A,3,17,15,26,04,28,08,,,,,,,2.6,1.4,2.2*33
$GPGSV,3,1,12,15,61,260,26,17,60,078,22,27,44,321,26,26,42,307,31*71
$GPGSV,3,2,12,28,32,047,29,09,23,310,,08,21,101,24,12,09,254,*76
$GPGSV,3,3,12,04,07,143,27,10,02,205,,18,01,306,,11,00,043,*74
$GPRMC,163124.000,A,3246.5397,N,03501.7004,E,0.25,332.88,200509,,*04
$GPGGA,163125.000,3246.5398,N,03501.7003,E,1,06,1.4,149.5,M,18.6,M,,0000*5C
$GPGSA,A,3,17,15,26,04,28,08,,,,,,,2.6,1.4,2.2*33
$GPGSV,3,1,12,15,61,260,26,17,60,078,22,27,44,321,26,26,42,307,31*71
$GPGSV,3,2,12,28,32,047,29,09,23,310,,08,21,101,24,12,09,254,*76
$GPGSV,3,3,12,04,07,143,27,10,02,205,,18,01,306,,11,00,043,*74
$GPRMC,163125.000,A,3246.5398,N,03501.7003,E,0.18,355.46,200509,,*00
$GPGGA,163126.000,3246.5400,N,03501.7002,E,1,06,1.4,148.7,M,18.6,M,,0000*5B
$GPGSA,A,3,17,15,26,04,28,08,,,,,,,2.6,1.4,2.2*33
$GPGSV,3,1,12,15,61,260,26,17,60,078,22,27,44,321,26,26,42,307,31*71
$GPGSV,3,2,12,28,32,047,29,09,23,310,,08,21,101,23,12,09,254,*71
$GPGSV,3,3,12,04,07,143,27,10,02,205,,18,01,306,,11,00,043,*74
$GPRMC,163126.000,A,3246.5400,N,03501.7002,E,0.35,315.67,200509,,*0C
$GPGGA,163127.000,3246.5402,N,03501.6999,E,1,06,1.4,147.5,M,18.6,M,,0000*5F
$GPGSA,A,3,17,15,26,04,28,08,,,,,,,2.6,1.4,2.2*33
$GPGSV,3,1,12,15,61,260,26,17,60,078,22,27,44,321,26,26,42,307,31*71
$GPGSV,3,2,12,28,32,047,29,09,23,310,,08,21,101,23,12,09,254,*71
$GPGSV,3,3,12,04,07,143,27,10,02,205,,18,01,306,,11,00,043,*74
$GPRMC,163127.000,A,3246.5402,N,03501.6999,E,0.57,300.48,200509,,*08
$GPGGA,163128.000,3246.5403,N,03501.6997,E,1,06,1.4,146.7,M,18.6,M,,0000*5C
$GPGSA,A,3,17,15,26,04,28,08,,,,,,,2.6,1.4,2.2*33
$GPGSV,3,1,12,15,61,260,26,17,60,078,22,27,44,321,26,26,42,307,31*71
$GPGSV,3,2,12,28,32,047,29,09,23,310,,08,21,101,23,12,09,254,*71
$GPGSV,3,3,12,04,07,143,27,10,02,205,,18,01,306,,11,00,043,*74
$GPRMC,163128.000,A,3246.5403,N,03501.6997,E,0.34,318.48,200509,,*04
$GPGGA,163129.000,3246.5404,N,03501.6996,E,1,06,1.4,146.2,M,18.6,M,,0000*5E
$GPGSA,A,3,17,15,26,04,28,08,,,,,,,2.6,1.4,2.2*33
$GPGSV,3,1,12,15,61,260,26,17,60,078,22,27,44,321,26,26,42,307,31*71
$GPGSV,3,2,12,28,32,047,29,09,23,310,,08,21,101,24,12,09,254,*76
$GPGSV,3,3,12,04,07,143,27,10,02,205,,18,01,306,,11,00,043,*74
$GPRMC,163129.000,A,3246.5404,N,03501.6996,E,0.19,2.94,200509,,*05
$GPGGA,163130.000,3246.5406,N,03501.6995,E,1,06,1.4,145.1,M,18.6,M,,0000*57
$GPGSA,A,3,17,15,26,04,28,08,,,,,,,2.6,1.4,2.2*33
$GPGSV,3,1,12,15,61,260,26,17,60,078,22,27,44,321,24,26,42,307,31*73
$GPGSV,3,2,12,28,32,047,29,09,23,310,,08,21,101,24,12,09,254,*76
$GPGSV,3,3,12,04,07,143,27,10,02,205,,18,01,306,,11,00,043,*74
$GPRMC,163130.000,A,3246.5406,N,03501.6995,E,0.27,320.81,200509,,*06
$GPGGA,163131.000,3246.5405,N,03501.6994,E,1,06,1.4,145.1,M,18.6,M,,0000*54
$GPGSA,A,3,17,15,26,04,28,08,,,,,,,2.6,1.4,2.2*33
$GPGSV,3,1,12,15,61,260,26,17,60,078,25,27,44,321,22,26,42,307,31*72
$GPGSV,3,2,12,28,32,047,30,09,23,310,,08,21,101,24,12,09,254,*7E
$GPGSV,3,3,12,04,07,143,27,10,02,205,,18,01,306,,11,00,043,*74
$GPRMC,163131.000,A,3246.5405,N,03501.6994,E,0.07,228.40,200509,,*03
$GPGGA,163132.000,3246.5404,N,03501.6998,E,1,06,1.4,147.0,M,18.6,M,,0000*59
$GPGSA,A,3,17,15,26,04,28,08,,,,,,,2.6,1.4,2.2*33
$GPGSV,3,1,12,15,61,260,25,17,60,078,31,27,44,321,22,26,42,307,28*7C
$GPGSV,3,2,12,28,32,047,31,09,23,310,,08,21,101,24,12,09,254,*7F
$GPGSV,3,3,12,04,07,143,27,10,02,205,,18,01,306,,11,00,043,*74
$GPRMC,163132.000,A,3246.5404,N,03501.6998,E,1.10,351.57,200509,,*03
$GPGGA,163133.000,3246.5405,N,03501.6999,E,1,06,1.4,149.3,M,18.6,M,,0000*55
$GPGSA,A,3,17,15,26,04,28,08,,,,,,,2.6,1.4,2.2*33
$GPGSV,3,1,12,15,61,260,28,17,60,078,30,27,44,321,24,26,42,307,26*78
$GPGSV,3,2,12,28,32,047,30,09,23,310,,08,21,101,24,12,09,254,*7E
$GPGSV,3,3,12,04,07,143,29,10,02,205,,18,01,306,,11,00,043,*7A
$GPRMC,163133.000,A,3246.5405,N,03501.6999,E,2.56,343.18,200509,,*0B
$GPGGA,163134.000,3246.5410,N,03501.6997,E,1,06,1.4,150.7,M,18.6,M,,0000*54
$GPGSA,A,3,17,15,26,04,28,08,,,,,,,2.6,1.4,2.2*33
$GPGSV,3,1,12,15,61,260,35,17,60,078,30,27,44,321,28,26,42,307,27*79
$GPGSV,3,2,12,28,32,047,30,09,23,310,,08,21,101,25,12,09,254,*7F
$GPGSV,3,3,12,04,07,143,29,10,02,205,,18,01,306,,11,00,043,*7A
$GPRMC,163134.000,A,3246.5410,N,03501.6997,E,3.24,340.43,200509,,*0F
$GPGGA,163135.000,3246.5419,N,03501.6996,E,1,06,1.4,152.2,M,18.6,M,,0000*5A
$GPGSA,A,3,17,15,26,04,28,08,,,,,,,2.6,1.4,2.2*33
$GPGSV,3,1,12,15,61,260,35,17,60,078,30,27,44,321,31,26,42,307,26*70
$GPGSV,3,2,12,28,32,047,31,09,23,310,18,08,21,101,25,12,09,254,*77
$GPGSV,3,3,12,04,07,143,29,10,02,205,,18,01,306,,11,00,043,*7A
$GPRMC,163135.000,A,3246.5419,N,03501.6996,E,5.27,337.03,200509,,*07
$GPGGA,163136.000,3246.5436,N,03501.6987,E,1,06,1.4,153.3,M,18.6,M,,0000*54
$GPGSA,A,3,17,15,26,04,28,08,,,,,,,2.6,1.4,2.2*33
$GPGSV,3,1,12,15,61,260,36,17,60,078,31,27,44,321,32,26,42,307,26*71
$GPGSV,3,2,12,28,32,047,26,09,23,310,18,08,21,101,25,12,09,254,*71
$GPGSV,3,3,12,04,07,143,30,10,02,205,,18,01,306,,11,00,043,*72
$GPRMC,163136.000,A,3246.5436,N,03501.6987,E,7.42,335.32,200509,,*08
$GPGGA,163137.000,3246.5456,N,03501.6976,E,1,06,1.4,154.2,M,18.6,M,,0000*5B
$GPGSA,A,3,17,15,26,04,28,08,,,,,,,2.6,1.4,2.2*33
$GPGSV,3,1,12,15,61,260,36,17,60,078,31,27,44,321,32,26,42,307,26*71
$GPGSV,3,2,12,28,32,047,22,09,23,310,17,08,21,101,25,12,09,254,*7A
$GPGSV,3,3,12,04,07,143,29,10,02,205,,18,01,306,,11,00,043,*7A
$GPRMC,163137.000,A,3246.5456,N,03501.6976,E,9.82,335.24,200509,,*04
$GPGGA,163138.000,3246.5481,N,03501.6963,E,1,06,1.4,153.6,M,18.6,M,,0000*59
$GPGSA,A,3,17,15,26,04,28,08,,,,,,,2.6,1.4,2.2*33
$GPGSV,3,1,12,15,61,260,35,17,60,078,31,27,44,321,25,26,42,307,26*74
$GPGSV,3,2,12,28,32,047,21,09,23,310,17,08,21,101,25,12,09,254,*79
$GPGSV,3,3,12,04,07,143,24,10,02,205,,18,01,306,,11,00,043,*77
$GPRMC,163138.000,A,3246.5481,N,03501.6963,E,10.15,341.31,200509,,*34
$GPGGA,163139.000,3246.5508,N,03501.6949,E,1,06,1.4,154.0,M,18.6,M,,0000*51
$GPGSA,A,3,17,15,26,04,28,08,,,,,,,2.6,1.4,2.2*33
$GPGSV,3,1,12,15,61,260,32,17,60,078,31,27,44,321,21,26,42,307,26*77
$GPGSV,3,2,12,28,32,047,22,09,23,310,17,08,21,101,23,12,09,254,*7C
$GPGSV,3,3,12,04,07,143,26,10,02,205,,18,01,306,,11,00,043,*75
$GPRMC,163139.000,A,3246.5508,N,03501.6949,E,9.26,345.82,200509,,*09
$GPGGA,163140.000,3246.5534,N,03501.6942,E,1,06,1.4,154.7,M,18.6,M,,0000*5C
$GPGSA,A,3,17,15,26,04,28,08,,,,,,,2.6,1.4,2.2*33
$GPGSV,3,1,12,15,61,260,31,17,60,078,32,27,44,321,20,26,42,307,26*76
$GPGSV,3,2,12,28,32,047,21,09,23,310,17,08,21,101,21,12,09,254,*7D
$GPGSV,3,3,12,04,07,143,26,10,02,205,,18,01,306,,11,00,043,*75
$GPRMC,163140.000,A,3246.5534,N,03501.6942,E,8.27,354.97,200509,,*07
$GPGGA,163141.000,3246.5543,N,03501.6945,E,1,06,1.4,156.8,M,18.6,M,,0000*57
$GPGSA,A,3,17,15,26,04,28,08,,,,,,,2.6,1.4,2.2*33
$GPGSV,3,1,12,15,61,260,33,17,60,078,31,27,44,321,19,26,42,307,20*7B
$GPGSV,3,2,12,28,32,047,21,09,23,310,17,08,21,101,22,12,09,254,*7E
$GPGSV,3,3,12,04,07,143,22,10,02,205,,18,01,306,,11,00,043,*71
$GPRMC,163141.000,A,3246.5543,N,03501.6945,E,5.62,7.56,200509,,*05
$GPGGA,163142.000,3246.5555,N,03501.6949,E,1,06,1.4,156.7,M,18.6,M,,0000*50
$GPGSA,A,3,17,15,26,04,28,08,,,,,,,2.6,1.4,2.2*33
$GPGSV,3,1,12,15,61,260,34,17,60,078,24,27,44,321,19,26,42,307,17*7C
$GPGSV,3,2,12,28,32,047,23,09,23,310,17,08,21,101,23,12,09,254,*7D
$GPGSV,3,3,12,04,07,143,20,10,02,205,,18,01,306,,11,00,043,*73
$GPRMC,163142.000,A,3246.5555,N,03501.6949,E,5.16,15.54,200509,,*3F
$GPGGA,163143.000,3246.5570,N,03501.6954,E,1,06,1.4,156.9,M,18.6,M,,0000*54
$GPGSA,A,3,17,15,26,04,28,08,,,,,,,2.6,1.4,2.2*33
$GPGSV,3,1,12,15,61,260,31,17,60,078,26,27,44,321,18,26,42,307,16*7B
$GPGSV,3,2,12,28,32,047,28,09,23,310,16,08,21,101,23,12,09,254,*77
$GPGSV,3,3,12,04,07,143,19,10,02,205,,18,01,306,,11,00,043,*79
$GPRMC,163143.000,A,3246.5570,N,03501.6954,E,4.34,14.77,200509,,*34
$GPGGA,163144.000,3246.5586,N,03501.6964,E,1,06,1.4,159.0,M,18.6,M,,0000*5F
$GPGSA,A,3,17,15,26,04,28,08,,,,,,,2.6,1.4,2.2*33
$GPGSV,3,1,12,15,61,260,19,17,60,078,26,27,44,321,18,26,42,307,16*71
$GPGSV,3,2,12,28,32,047,27,09,23,310,16,08,21,101,24,12,09,254,*7F
$GPGSV,3,3,12,04,07,143,18,10,02,205,,18,01,306,,11,00,043,*78
$GPRMC,163144.000,A,3246.5586,N,03501.6964,E,4.05,9.98,200509,,*06
$GPGGA,163145.000,3246.5602,N,03501.6971,E,1,06,1.4,160.0,M,18.6,M,,0000*5F
$GPGSA,A,3,17,15,26,04,28,08,,,,,,,2.6,1.4,2.2*33
$GPGSV,3,1,12,15,61,260,20,17,60,078,33,27,44,321,18,26,42,307,16*7F
$GPGSV,3,2,12,28,32,047,28,09,23,310,16,08,21,101,25,12,09,254,*71
$GPGSV,3,3,12,04,07,143,18,10,02,205,,18,01,306,,11,00,043,*78
$GPRMC,163145.000,A,3246.5602,N,03501.6971,E,5.06,13.61,200509,,*33
$GPGGA,163146.000,3246.5620,N,03501.6979,E,1,06,1.4,160.4,M,18.6,M,,0000*50
$GPGSA,A,3,17,15,26,04,28,08,,,,,,,2.6,1.4,2.2*33
$GPGSV,3,1,12,15,61,260,19,17,60,078,34,27,44,321,18,26,42,307,17*73
$GPGSV,3,2,12,28,32,047,29,09,23,310,16,08,21,101,32,12,09,254,*76
$GPGSV,3,3,12,04,07,143,17,10,02,205,,18,01,306,,11,00,043,*77
$GPRMC,163146.000,A,3246.5620,N,03501.6979,E,6.16,22.28,200509,,*35
$GPGGA,163147.000,3246.5641,N,03501.6990,E,1,06,1.4,161.0,M,18.6,M,,0000*54
$GPGSA,A,3,17,15,26,04,28,08,,,,,,,2.6,1.4,2.2*33
$GPGSV,3,1,12,15,61,260,18,17,60,078,35,27,44,321,18,26,42,307,20*77
$GPGSV,3,2,12,28,32,047,29,09,23,310,16,08,21,101,31,12,09,254,*75
$GPGSV,3,3,12,04,07,143,17,10,02,205,,18,01,306,,11,00,043,*77
$GPRMC,163147.000,A,3246.5641,N,03501.6990,E,7.54,19.90,200509,,*38
$GPGGA,163148.000,3246.5665,N,03501.6995,E,1,06,1.4,161.0,M,18.6,M,,0000*58
$GPGSA,A,3,17,15,26,04,28,08,,,,,,,2.6,1.4,2.2*33
$GPGSV,3,1,12,15,61,260,24,17,60,078,35,27,44,321,23,26,42,307,23*73
$GPGSV,3,2,12,28,32,047,30,09,23,310,17,08,21,101,24,12,09,254,*78
$GPGSV,3,3,12,04,07,143,17,10,02,205,,18,01,306,,11,00,043,*77
$GPRMC,163148.000,A,3246.5665,N,03501.6995,E,8.59,9.26,200509,,*0A
$GPGGA,163149.000,3246.5685,N,03501.6987,E,1,06,1.4,160.5,M,18.6,M,,0000*50
$GPGSA,A,3,17,15,26,04,28,08,,,,,,,2.6,1.4,2.2*33
$GPGSV,3,1,12,15,61,260,24,17,60,078,35,27,44,321,26,26,42,307,26*73
$GPGSV,3,2,12,28,32,047,21,09,23,310,23,08,21,101,24,12,09,254,*7F
$GPGSV,3,3,12,04,07,143,17,10,02,205,,18,01,306,,11,00,043,*77
$GPRMC,163149.000,A,3246.5685,N,03501.6987,E,7.01,353.84,200509,,*00
$GPGGA,163150.000,3246.5711,N,03501.6977,E,1,06,1.4,160.2,M,18.6,M,,0000*5C
$GPGSA,A,3,17,15,26,04,28,08,,,,,,,2.6,1.4,2.2*33
$GPGSV,3,1,12,15,61,260,23,17,60,078,35,27,44,321,25,26,42,307,26*77
$GPGSV,3,2,12,28,32,047,25,09,23,310,23,08,21,101,24,12,09,254,*7B
$GPGSV,3,3,12,04,07,143,17,10,02,205,,18,01,306,,11,00,043,*77
$GPRMC,163150.000,A,3246.5711,N,03501.6977,E,8.60,346.39,200509,,*01
$GPGGA,163151.000,3246.5748,N,03501.6962,E,1,06,1.4,158.9,M,18.6,M,,0000*55
$GPGSA,A,3,17,15,26,04,28,08,,,,,,,2.6,1.4,2.2*33
$GPGSV,3,1,12,15,61,260,21,17,60,078,35,27,44,321,24,26,42,307,25*77
$GPGSV,3,2,12,28,32,047,27,09,23,310,22,08,21,101,17,12,09,254,*78
$GPGSV,3,3,12,04,07,143,17,10,02,205,,18,01,306,,11,00,043,*77
$GPRMC,163151.000,A,3246.5748,N,03501.6962,E,10.75,342.89,200509,,*3A
$GPGGA,163152.000,3246.5781,N,03501.6943,E,1,06,1.4,158.4,M,18.6,M,,0000*5D
$GPGSA,A,3,17,15,26,04,28,08,,,,,,,2.6,1.4,2.2*33
$GPGSV,3,1,12,15,61,260,22,17,60,078,35,27,44,321,24,26,42,307,25*74
$GPGSV,3,2,12,28,32,047,20,09,23,310,23,08,21,101,17,12,09,254,*7E
$GPGSV,3,3,12,04,07,143,23,10,02,205,,18,01,306,,11,00,043,*70
$GPRMC,163152.000,A,3246.5781,N,03501.6943,E,11.73,338.39,200509,,*3E
$GPGGA,163153.000,3246.5810,N,03501.6926,E,1,06,1.4,158.3,M,18.6,M,,0000*5F
$GPGSA,A,3,17,15,26,04,28,08,,,,,,,2.6,1.4,2.2*33
$GPGSV,3,1,12,15,61,260,27,17,60,078,35,27,44,321,24,26,42,307,26*72
$GPGSV,3,2,12,28,32,047,19,09,23,310,23,08,21,101,18,12,09,254,*7B
$GPGSV,3,3,12,04,07,143,26,10,02,205,,18,01,306,,11,00,043,*75
$GPRMC,163153.000,A,3246.5810,N,03501.6926,E,10.65,335.80,200509,,*32
$GPGGA,163154.000,3246.5837,N,03501.6911,E,1,06,1.4,157.7,M,18.6,M,,0000*52
$GPGSA,A,3,17,15,26,04,28,08,,,,,,,2.6,1.4,2.2*33
$GPGSV,3,1,12,15,61,260,31,17,60,078,35,27,44,321,24,26,42,307,25*76
$GPGSV,3,2,12,28,32,047,21,09,23,310,30,08,21,101,17,12,09,254,*7D
$GPGSV,3,3,12,04,07,143,26,10,02,205,,18,01,306,,11,00,043,*75
$GPRMC,163154.000,A,3246.5837,N,03501.6911,E,9.57,333.48,200509,,*0F
$GPGGA,163155.000,3246.5856,N,03501.6892,E,1,05,1.8,159.3,M,18.6,M,,0000*5B
$GPGSA,A,3,17,15,26,28,08,,,,,,,,3.5,1.8,2.9*32
$GPGSV,3,1,12,15,61,260,32,17,60,078,35,27,44,321,24,26,42,307,18*7B
$GPGSV,3,2,12,28,32,047,28,09,23,310,31,08,21,101,17,12,09,254,*75
$GPGSV,3,3,12,04,07,143,18,10,02,205,,18,01,306,,11,00,043,*78
$GPRMC,163155.000,A,3246.5856,N,03501.6892,E,8.72,329.41,200509,,*07
$GPGGA,163156.000,3246.5873,N,03501.6881,E,1,06,1.4,161.8,M,18.6,M,,0000*52
$GPGSA,A,3,17,15,26,04,28,08,,,,,,,2.6,1.4,2.2*33
$GPGSV,3,1,12,15,61,260,33,17,60,078,35,27,44,321,24,26,42,307,16*74
$GPGSV,3,2,12,28,32,047,32,09,23,310,31,08,21,101,17,12,09,254,*7E
$GPGSV,3,3,12,04,07,143,15,10,02,205,,18,01,306,,11,00,043,*75
$GPRMC,163156.000,A,3246.5873,N,03501.6881,E,7.59,329.71,200509,,*04
$GPGGA,163157.000,3246.5890,N,03501.6867,E,1,06,1.4,163.3,M,18.6,M,,0000*5F
$GPGSA,A,3,17,15,26,04,28,08,,,,,,,2.6,1.4,2.2*33
$GPGSV,3,1,12,15,61,260,33,17,60,078,35,27,44,321,28,26,42,307,18*76
$GPGSV,3,2,12,28,32,047,33,09,23,310,30,08,21,101,16,12,09,254,*7F
$GPGSV,3,3,12,04,07,143,15,10,02,205,,18,01,306,,11,00,043,*75
$GPRMC,163157.000,A,3246.5890,N,03501.6867,E,6.42,331.34,200509,,*03
$GPGGA,163158.000,3246.5905,N,03501.6858,E,1,06,1.4,164.8,M,18.6,M,,0000*5D
$GPGSA,A,3,17,15,26,04,28,08,,,,,,,2.6,1.4,2.2*33
$GPGSV,3,1,12,15,61,260,34,17,60,078,35,27,44,321,28,26,42,307,26*7C
$GPGSV,3,2,12,28,32,047,33,09,23,310,30,08,21,101,16,12,09,254,*7F
$GPGSV,3,3,12,04,07,143,14,10,02,205,,18,01,306,,11,00,043,*74
$GPRMC,163158.000,A,3246.5905,N,03501.6858,E,4.46,336.18,200509,,*02
$GPGGA,163159.000,3246.5915,N,03501.6853,E,1,06,1.4,166.7,M,18.6,M,,0000*5B
$GPGSA,A,3,17,15,26,04,28,08,,,,,,,2.6,1.4,2.2*33
$GPGSV,3,1,12,15,61,260,34,17,60,078,35,27,44,321,28,26,42,307,23*79
$GPGSV,3,2,12,28,32,047,33,09,23,310,30,08,21,101,15,12,09,254,*7C
$GPGSV,3,3,12,04,07,143,13,10,02,205,,18,01,306,,11,00,043,*73
$GPRMC,163159.000,A,3246.5915,N,03501.6853,E,2.97,338.77,200509,,*04
$GPGGA,163200.000,3246.5927,N,03501.6842,E,1,06,1.4,167.0,M,18.6,M,,0000*53
$GPGSA,A,3,17,15,26,04,28,08,,,,,,,2.6,1.4,2.2*33
$GPGSV,3,1,12,15,61,260,34,17,60,078,35,27,44,321,27,26,42,307,25*70
$GPGSV,3,2,12,28,32,047,33,09,23,310,31,08,21,101,16,12,09,254,*7E
$GPGSV,3,3,12,04,07,143,13,10,02,205,,18,01,306,,11,00,043,*73
$GPRMC,163200.000,A,3246.5927,N,03501.6842,E,3.10,326.13,200509,,*09
$GPGGA,163201.000,3246.5930,N,03501.6831,E,1,06,1.4,165.8,M,18.6,M,,0000*5A
$GPGSA,A,3,17,15,26,04,28,08,,,,,,,2.6,1.4,2.2*33
$GPGSV,3,1,12,15,61,260,35,17,60,078,35,27,44,321,27,26,42,307,25*71
$GPGSV,3,2,12,28,32,047,33,09,23,310,31,08,21,101,21,12,09,254,*7A
$GPGSV,3,3,12,04,07,143,14,10,02,205,,18,01,306,,11,00,043,*74
$GPRMC,163201.000,A,3246.5930,N,03501.6831,E,4.60,300.41,200509,,*09
$GPGGA,163202.000,3246.5933,N,03501.6811,E,1,05,2.0,164.1,M,18.6,M,,0000*54
$GPGSA,A,3,17,15,26,04,08,,,,,,,,3.1,2.0,2.4*3E
$GPGSV,3,1,12,15,61,260,34,17,60,078,35,27,44,321,29,26,42,307,30*7A
$GPGSV,3,2,12,28,32,047,,09,23,310,27,08,21,101,24,12,09,254,*78
$GPGSV,3,3,12,04,07,143,20,10,02,205,,18,01,306,,11,00,043,*73
$GPRMC,163202.000,A,3246.5933,N,03501.6811,E,7.74,290.05,200509,,*05
$GPGGA,163203.000,3246.5933,N,03501.6782,E,1,06,1.4,163.4,M,18.6,M,,0000*56
$GPGSA,A,3,17,15,26,04,28,08,,,,,,,2.6,1.4,2.2*33
$GPGSV,3,1,12,15,61,260,34,17,60,078,35,27,44,321,31,26,42,307,31*72
$GPGSV,3,2,12,28,32,047,37,09,23,310,17,08,21,101,24,12,09,254,*7F
$GPGSV,3,3,12,04,07,143,24,10,02,205,,18,01,306,,11,00,043,*77
$GPRMC,163203.000,A,3246.5933,N,03501.6782,E,9.41,273.66,200509,,*01
$GPGGA,163204.000,3246.5925,N,03501.6744,E,1,05,1.8,163.9,M,18.6,M,,0000*5E
$GPGSA,A,3,17,15,26,28,08,,,,,,,,3.5,1.8,2.9*32
$GPGSV,3,1,12,15,61,260,34,17,60,078,36,27,44,321,30,26,42,307,30*71
$GPGSV,3,2,12,28,32,047,37,09,23,310,17,08,21,101,30,12,09,254,*7A
$GPGSV,3,3,12,04,07,143,12,10,02,205,,18,01,306,,11,00,043,*72
$GPRMC,163204.000,A,3246.5925,N,03501.6744,E,11.41,259.43,200509,,*3D
$GPGGA,163205.000,3246.5913,N,03501.6703,E,1,05,1.8,164.2,M,18.6,M,,0000*55
$GPGSA,A,3,17,15,26,28,08,,,,,,,,3.5,1.8,2.9*32
$GPGSV,3,1,12,15,61,260,34,17,60,078,36,27,44,321,30,26,42,307,30*71
$GPGSV,3,2,12,28,32,047,37,09,23,310,29,08,21,101,33,12,09,254,*74
$GPGSV,3,3,12,04,07,143,10,10,02,205,,18,01,306,,11,00,043,*70
$GPRMC,163205.000,A,3246.5913,N,03501.6703,E,12.89,254.11,200509,,*37
$GPGGA,163206.000,3246.5900,N,03501.6660,E,1,05,1.8,164.3,M,18.6,M,,0000*51
$GPGSA,A,3,17,15,26,28,08,,,,,,,,3.5,1.8,2.9*32
$GPGSV,3,1,12,15,61,260,29,17,60,078,36,27,44,321,31,26,42,307,30*7C
$GPGSV,3,2,12,28,32,047,37,09,23,310,31,08,21,101,32,12,09,254,*7C
$GPGSV,3,3,12,04,07,143,,10,02,205,,18,01,306,,11,00,043,*71
$GPRMC,163206.000,A,3246.5900,N,03501.6660,E,13.33,252.86,200509,,*3A
$GPGGA,163207.000,3246.5887,N,03501.6618,E,1,05,1.8,164.6,M,18.6,M,,0000*54
$GPGSA,A,3,17,15,26,28,08,,,,,,,,3.5,1.8,2.9*32
$GPGSV,3,1,12,15,61,260,28,17,60,078,36,27,44,321,31,26,42,307,31*7C
$GPGSV,3,2,12,28,32,047,37,09,23,310,30,08,21,101,32,12,09,254,*7D
$GPGSV,3,3,12,04,07,143,,10,02,205,,18,01,306,,11,00,043,*71
$GPRMC,163207.000,A,3246.5887,N,03501.6618,E,12.32,251.14,200509,,*32
$GPGGA,163208.000,3246.5874,N,03501.6581,E,1,05,1.8,164.8,M,18.6,M,,0000*5A
$GPGSA,A,3,17,15,26,28,08,,,,,,,,3.5,1.8,2.9*32
$GPGSV,3,1,12,15,61,260,28,17,60,078,36,27,44,321,31,26,42,307,31*7C
$GPGSV,3,2,12,28,32,047,37,09,23,310,25,08,21,101,32,12,09,254,*79
$GPGSV,3,3,12,04,07,143,,10,02,205,,18,01,306,,11,00,043,*71
$GPRMC,163208.000,A,3246.5874,N,03501.6581,E,11.63,249.50,200509,,*3C
$GPGGA,163209.000,3246.5859,N,03501.6543,E,1,05,1.8,165.1,M,18.6,M,,0000*52
$GPGSA,A,3,17,15,26,28,08,,,,,,,,3.5,1.8,2.9*32
$GPGSV,3,1,12,15,61,260,28,17,60,078,36,27,44,321,31,26,42,307,34*79
$GPGSV,3,2,12,28,32,047,37,09,23,310,19,08,21,101,31,12,09,254,*75
$GPGSV,3,3,12,04,07,143,,10,02,205,,18,01,306,,11,00,043,*71
$GPRMC,163209.000,A,3246.5859,N,03501.6543,E,12.11,246.42,200509,,*36
$GPGGA,163210.000,3246.5841,N,03501.6506,E,1,05,1.8,165.5,M,18.6,M,,0000*56
$GPGSA,A,3,17,15,26,28,08,,,,,,,,3.5,1.8,2.9*32
$GPGSV,3,1,12,15,61,260,29,17,60,078,36,27,44,321,31,26,42,307,33*7F
$GPGSV,3,2,12,28,32,047,37,09,23,310,20,08,21,101,30,12,09,254,*7E
$GPGSV,3,3,12,04,07,143,,10,02,205,,18,01,306,,11,00,043,*71
$GPRMC,163210.000,A,3246.5841,N,03501.6506,E,12.61,240.50,200509,,*34
$GPGGA,163211.000,3246.5818,N,03501.6475,E,1,05,1.8,166.5,M,18.6,M,,0000*5D
$GPGSA,A,3,17,15,26,28,08,,,,,,,,3.5,1.8,2.9*32
$GPGSV,3,1,12,15,61,260,30,17,60,078,33,27,44,321,24,26,42,307,21*75
$GPGSV,3,2,12,28,32,047,36,09,23,310,19,08,21,101,29,12,09,254,*7D
$GPGSV,3,3,12,04,07,143,,10,02,205,,18,01,306,,11,00,043,*71
$GPRMC,163211.000,A,3246.5818,N,03501.6475,E,13.14,233.07,200509,,*39
$GPGGA,163212.000,3246.5792,N,03501.6440,E,1,05,1.8,167.5,M,18.6,M,,0000*54
$GPGSA,A,3,17,15,26,28,08,,,,,,,,3.5,1.8,2.9*32
$GPGSV,3,1,12,15,61,260,30,17,60,078,31,27,44,321,28,26,42,307,27*7D
$GPGSV,3,2,12,28,32,047,32,09,23,310,18,08,21,101,27,12,09,254,*76
$GPGSV,3,3,12,04,07,143,,10,02,205,,18,01,306,,11,00,043,*71
$GPRMC,163212.000,A,3246.5792,N,03501.6440,E,13.68,229.05,200509,,*33
$GPGGA,163213.000,3246.5760,N,03501.6408,E,1,05,1.8,167.9,M,18.6,M,,0000*58
$GPGSA,A,3,17,15,26,28,08,,,,,,,,3.5,1.8,2.9*32
$GPGSV,3,1,12,15,61,260,30,17,60,078,32,27,44,321,,26,42,307,29*7A
$GPGSV,3,2,12,28,32,047,33,09,23,310,18,08,21,101,21,12,09,254,*71
$GPGSV,3,3,12,04,07,143,,10,02,205,,18,01,306,,11,00,043,*71
$GPRMC,163213.000,A,3246.5760,N,03501.6408,E,14.39,221.50,200509,,*38
$GPGGA,163214.000,3246.5724,N,03501.6377,E,1,05,1.8,168.1,M,18.6,M,,0000*57
$GPGSA,A,3,17,15,26,28,08,,,,,,,,3.5,1.8,2.9*32
$GPGSV,3,1,12,15,61,260,30,17,60,078,32,27,44,321,35,26,42,307,35*71
$GPGSV,3,2,12,28,32,047,28,09,23,310,27,08,21,101,20,12,09,254,*76
$GPGSV,3,3,12,04,07,143,,10,02,205,,18,01,306,,11,00,043,*71
$GPRMC,163214.000,A,3246.5724,N,03501.6377,E,15.25,216.38,200509,,*36
$GPGGA,163215.000,3246.5682,N,03501.6348,E,1,06,1.4,168.1,M,18.6,M,,0000*58
$GPGSA,A,3,17,15,26,28,08,04,,,,,,,2.6,1.4,2.2*33
$GPGSV,3,1,12,15,61,260,34,17,60,078,33,27,44,321,36,26,42,307,35*77
$GPGSV,3,2,12,28,32,047,23,09,23,310,31,08,21,101,24,12,09,254,*7E
$GPGSV,3,3,12,04,07,143,20,10,02,205,,18,01,306,,11,00,043,*73
$GPRMC,163215.000,A,3246.5682,N,03501.6348,E,16.07,212.19,200509,,*32
$GPGGA,163216.000,3246.5643,N,03501.6321,E,1,06,1.4,168.7,M,18.6,M,,0000*5F
$GPGSA,A,3,17,15,26,28,08,04,,,,,,,2.6,1.4,2.2*33
$GPGSV,3,1,12,15,61,260,35,17,60,078,32,27,44,321,36,26,42,307,35*77
$GPGSV,3,2,12,28,32,047,24,09,23,310,29,08,21,101,24,12,09,254,*70
$GPGSV,3,3,12,04,07,143,17,10,02,205,,18,01,306,,11,00,043,*77
$GPRMC,163216.000,A,3246.5643,N,03501.6321,E,16.46,210.01,200509,,*3D
$GPGGA,163217.000,3246.5602,N,03501.6296,E,1,06,1.4,169.7,M,18.6,M,,0000*57
$GPGSA,A,3,17,15,26,28,08,04,,,,,,,2.6,1.4,2.2*33
$GPGSV,3,1,12,15,61,260,34,17,60,078,30,27,44,321,37,26,42,307,35*75
$GPGSV,3,2,12,28,32,047,25,09,23,310,18,08,21,101,23,12,09,254,*74
$GPGSV,3,3,12,04,07,143,17,10,02,205,,18,01,306,,11,00,043,*77
$GPRMC,163217.000,A,3246.5602,N,03501.6296,E,16.20,207.05,200509,,*36
$GPGGA,163218.000,3246.5563,N,03501.6274,E,1,06,1.4,170.4,M,18.6,M,,0000*5B
$GPGSA,A,3,17,15,26,28,08,04,,,,,,,2.6,1.4,2.2*33
$GPGSV,3,1,12,15,61,260,34,17,60,078,25,27,44,321,32,26,42,307,28*78
$GPGSV,3,2,12,28,32,047,26,09,23,310,19,08,21,101,23,12,09,254,*76
$GPGSV,3,3,12,04,07,143,17,10,02,205,,18,01,306,,11,00,043,*77
$GPRMC,163218.000,A,3246.5563,N,03501.6274,E,15.06,204.01,200509,,*31
$GPGGA,163219.000,3246.5526,N,03501.6256,E,1,06,1.4,170.7,M,18.6,M,,0000*58
$GPGSA,A,3,17,15,26,28,08,04,,,,,,,2.6,1.4,2.2*33
$GPGSV,3,1,12,15,61,260,34,17,60,078,24,27,44,321,34,26,42,307,32*74
$GPGSV,3,2,12,28,32,047,27,09,23,310,19,08,21,101,27,12,09,254,*73
$GPGSV,3,3,12,04,07,143,16,10,02,205,,18,01,306,,11,00,043,*76
$GPRMC,163219.000,A,3246.5526,N,03501.6256,E,13.63,204.59,200509,,*39
$GPGGA,163220.000,3246.5502,N,03501.6242,E,1,06,1.4,171.2,M,18.6,M,,0000*55
$GPGSA,A,3,17,15,26,28,08,04,,,,,,,2.6,1.4,2.2*33
$GPGSV,3,1,12,15,61,260,33,17,60,078,26,27,44,321,36,26,42,307,33*72
$GPGSV,3,2,12,28,32,047,27,09,23,310,19,08,21,101,32,12,09,254,*77
$GPGSV,3,3,12,04,07,143,16,10,02,205,,18,01,306,,11,00,043,13*74
$GPRMC,163220.000,A,3246.5502,N,03501.6242,E,10.13,206.35,200509,,*3C
$GPGGA,163221.000,3246.5485,N,03501.6234,E,1,06,1.4,171.6,M,18.6,M,,0000*5F
$GPGSA,A,3,17,15,26,28,08,04,,,,,,,2.6,1.4,2.2*33
$GPGSV,3,1,12,15,61,260,33,17,60,078,29,27,44,321,36,26,42,307,34*7A
$GPGSV,3,2,12,28,32,047,26,09,23,310,19,08,21,101,32,12,09,254,*76
$GPGSV,3,3,12,04,07,143,16,10,02,205,,18,01,306,,11,00,043,16*71
$GPRMC,163221.000,A,3246.5485,N,03501.6234,E,6.29,202.98,200509,,*0F
$GPGGA,163222.000,3246.5482,N,03501.6232,E,1,06,1.4,171.3,M,18.6,M,,0000*58
$GPGSA,A,3,17,15,26,28,08,04,,,,,,,2.6,1.4,2.2*33
$GPGSV,3,1,12,15,61,260,33,17,60,078,30,27,44,321,36,26,42,307,34*72
$GPGSV,3,2,12,28,32,047,26,09,23,310,19,08,21,101,32,12,09,254,*76
$GPGSV,3,3,12,04,07,143,16,10,02,205,,18,01,306,,11,00,043,22*76
$GPRMC,163222.000,A,3246.5482,N,03501.6232,E,2.30,195.12,200509,,*0E
$GPGGA,163223.000,3246.5481,N,03501.6232,E,1,06,1.4,171.1,M,18.6,M,,0000*58
$GPGSA,A,3,17,15,26,28,08,04,,,,,,,2.6,1.4,2.2*33
$GPGSV,3,1,12,15,61,260,33,17,60,078,30,27,44,321,36,26,42,307,34*72
$GPGSV,3,2,12,28,32,047,26,09,23,310,19,08,21,101,32,12,09,254,*76
$GPGSV,3,3,12,04,07,143,16,10,02,205,,18,01,306,,11,00,043,21*75
$GPRMC,163223.000,A,3246.5481,N,03501.6232,E,0.31,172.71,200509,,*03
$GPGGA,163224.000,3246.5483,N,03501.6233,E,1,06,1.4,170.9,M,18.6,M,,0000*55
$GPGSA,A,3,17,15,26,28,08,04,,,,,,,2.6,1.4,2.2*33
$GPGSV,3,1,12,15,61,260,33,17,60,078,30,27,44,321,36,26,42,307,34*72
$GPGSV,3,2,12,28,32,047,26,09,23,310,19,08,21,101,32,12,09,254,*76
$GPGSV,3,3,12,04,07,143,16,10,02,205,,18,01,306,,11,00,043,21*75
$GPRMC,163224.000,A,3246.5483,N,03501.6233,E,0.11,329.89,200509,,*0E
$GPGGA,163225.000,3246.5482,N,03501.6231,E,1,06,1.4,170.6,M,18.6,M,,0000*58
$GPGSA,A,3,17,15,26,28,08,04,,,,,,,2.6,1.4,2.2*33
$GPGSV,3,1,12,15,61,260,33,17,60,078,31,27,44,321,36,26,42,307,34*73
$GPGSV,3,2,12,28,32,047,26,09,23,310,20,08,21,101,33,12,09,254,*7D
$GPGSV,3,3,12,04,07,143,16,10,02,205,,18,01,306,,11,00,043,21*75
$GPRMC,163225.000,A,3246.5482,N,03501.6231,E,1.47,232.79,200509,,*0A
$GPGGA,163226.000,3246.5479,N,03501.6225,E,1,06,1.4,170.2,M,18.6,M,,0000*5E
$GPGSA,A,3,17,15,26,28,08,04,,,,,,,2.6,1.4,2.2*33
$GPGSV,3,1,12,15,61,260,33,17,60,078,31,27,44,321,37,26,42,307,34*72
$GPGSV,3,2,12,28,32,047,26,09,23,310,20,08,21,101,33,12,09,254,*7D
$GPGSV,3,3,12,04,07,143,16,10,02,205,,18,01,306,,11,00,043,17*70
$GPRMC,163226.000,A,3246.5479,N,03501.6225,E,3.81,223.05,200509,,*0B
$GPGGA,163227.000,3246.5459,N,03501.6209,E,1,06,1.4,170.4,M,18.6,M,,0000*55
$GPGSA,A,3,17,15,26,28,08,04,,,,,,,2.6,1.4,2.2*33
$GPGSV,3,1,12,15,61,260,33,17,60,078,31,27,44,321,37,26,42,307,34*72
$GPGSV,3,2,12,28,32,047,26,09,23,310,28,08,21,101,33,12,09,254,*75
$GPGSV,3,3,12,04,07,143,16,10,02,205,,18,01,306,,11,00,043,13*74
$GPRMC,163227.000,A,3246.5459,N,03501.6209,E,7.56,219.71,200509,,*02
$GPGGA,163228.000,3246.5433,N,03501.6187,E,1,06,1.4,170.3,M,18.6,M,,0000*54
$GPGSA,A,3,17,15,26,28,08,04,,,,,,,2.6,1.4,2.2*33
$GPGSV,3,1,12,15,61,260,30,17,60,078,31,27,44,321,37,26,42,307,34*71
$GPGSV,3,2,12,28,32,047,26,09,23,310,32,08,21,101,33,12,09,254,*7E
$GPGSV,3,3,12,04,07,143,19,10,02,205,,18,01,306,,11,00,043,11*79
$GPRMC,163228.000,A,3246.5433,N,03501.6187,E,10.24,218.26,200509,,*34
$GPGGA,163229.000,3246.5401,N,03501.6164,E,1,06,1.4,170.7,M,18.6,M,,0000*5D
$GPGSA,A,3,17,15,26,28,08,04,,,,,,,2.6,1.4,2.2*33
$GPGSV,3,1,12,15,61,260,27,17,60,078,31,27,44,321,37,26,42,307,34*77
$GPGSV,3,2,12,28,32,047,26,09,23,310,31,08,21,101,33,12,09,254,*7D
